time,latitude,longitude,roll,pitch,yaw,filtered_latitude,filtered_longitude,filtered_roll,filtered_pitch,filtered_yaw
1677904312,28.2928467,77.2950928,-nan,0.2136500,-nan,28.2928467,77.2950928,-nan,0.2136500,-nan
1677904312,28.2928467,77.2950928,-nan,0.2136500,-nan,28.2928467,77.2950928,nan,-nan,nan
1677904312,28.2928467,77.2950928,-nan,0.2241482,-nan,nan,nan,nan,-nan,nan
1677904312,28.2928467,77.2950928,-nan,0.2241482,-nan,nan,nan,nan,-nan,nan
1677904313,28.2928467,77.2950928,-0.3717432,0.2241482,-0.3726590,nan,nan,nan,-nan,nan
1677904313,28.2928467,77.2950928,-0.3717432,0.2241482,-0.3726590,nan,nan,nan,-nan,nan
1677904313,28.2928467,77.2950928,-0.3717432,0.2241482,-0.3726590,nan,nan,nan,-nan,nan
1677904313,28.2928467,77.2950928,-0.3717432,0.2241482,-0.3726590,nan,nan,nan,-nan,nan
1677904313,28.2928467,77.2950928,-0.3717432,0.2241482,-0.3726590,nan,nan,nan,-nan,nan
1677904313,28.2928467,77.2950928,-0.3717432,0.2241482,-0.3726590,nan,nan,nan,-nan,nan
1677904313,28.2928467,77.2950928,-0.3717432,0.2241482,-0.3718033,nan,nan,nan,-nan,nan
1677904313,28.2928467,77.2950928,-0.3717432,0.2241482,-0.3735987,nan,nan,nan,-nan,nan
1677904313,28.2928467,77.2950928,-0.3717432,0.2241482,-0.3735987,nan,nan,nan,-nan,nan
1677904313,28.2928467,77.2950928,-0.3788372,0.2922981,-0.3751387,nan,nan,nan,-nan,nan
1677904314,28.2928467,77.2950928,-nan,0.2922981,-nan,nan,nan,nan,-nan,nan
1677904314,28.2928467,77.2950928,-nan,0.2922981,-nan,nan,nan,nan,-nan,nan
1677904314,28.2928467,77.2950928,-nan,0.2922981,-nan,nan,nan,nan,-nan,nan
1677904314,28.2928467,77.2950928,-nan,0.2922981,-nan,nan,nan,nan,-nan,nan
1677904314,28.2928467,77.2950928,-nan,0.2922981,-nan,nan,nan,nan,-nan,nan
1677904314,28.2928467,77.2950928,-nan,0.2922981,-nan,nan,nan,nan,-nan,nan
1677904314,28.2928467,77.2950928,-nan,0.2922981,-nan,nan,nan,nan,-nan,nan
1677904314,28.2928467,77.2950928,-nan,0.2922981,-nan,nan,nan,nan,-nan,nan
1677904314,28.2928467,77.2950928,-nan,0.2922981,-nan,nan,nan,nan,-nan,nan
1677904314,28.2928467,77.2950928,-nan,0.2922981,-nan,nan,nan,nan,-nan,nan
1677904315,28.2928467,77.2950928,-nan,0.1135780,-nan,nan,nan,nan,-nan,nan
1677904315,28.2928467,77.2950928,-nan,0.1135780,-nan,nan,nan,nan,-nan,nan
1677904315,28.2928467,77.2950928,-nan,0.1135780,-nan,nan,nan,nan,-nan,nan
1677904315,28.2928467,77.2950928,-nan,0.1135780,-nan,nan,nan,nan,-nan,nan
1677904315,28.2928467,77.2950928,-nan,0.1135780,-nan,nan,nan,nan,-nan,nan
1677904315,28.2928467,77.2950928,-nan,0.1135780,-nan,nan,nan,nan,-nan,nan
1677904315,28.2928467,77.2950928,-nan,0.1135780,-nan,nan,nan,nan,-nan,nan
1677904315,28.2928467,77.2950928,-nan,0.1135780,-nan,nan,nan,nan,-nan,nan
1677904315,28.2928491,77.2950928,-nan,0.1135780,-nan,nan,nan,nan,-nan,nan
1677904316,28.2928491,77.2950928,-nan,0.1135780,-nan,nan,nan,nan,-nan,nan
1677904316,28.2928491,77.2950928,-nan,0.0932176,-nan,nan,nan,nan,-nan,nan
1677904316,28.2928491,77.2950928,-nan,0.0932176,-nan,nan,nan,nan,-nan,nan
1677904316,28.2928491,77.2950928,-0.5201057,0.0932176,-0.4163330,nan,nan,nan,-nan,nan
1677904316,28.2928491,77.2950928,-0.5201057,0.0932176,-0.4163330,nan,nan,nan,-nan,nan
1677904316,28.2928491,77.2950928,-0.5201057,0.0932176,-0.4163330,nan,nan,nan,-nan,nan
1677904316,28.2928491,77.2950928,-0.5201057,0.0932176,-0.4163330,nan,nan,nan,-nan,nan
1677904316,28.2928491,77.2950928,-0.5201057,0.0932176,-0.4163330,nan,nan,nan,-nan,nan
1677904316,28.2928491,77.2950928,-0.5201057,0.0932176,-0.4163330,nan,nan,nan,-nan,nan
1677904316,28.2928491,77.2950928,-0.5201057,0.0932176,-0.4163330,nan,nan,nan,-nan,nan
1677904317,28.2928491,77.2950928,-0.5201057,0.0932176,-0.4167512,nan,nan,nan,-nan,nan
1677904317,28.2928491,77.2950928,-0.5201057,0.0932176,-0.4169745,nan,nan,nan,-nan,nan
1677904317,28.2928491,77.2950928,-0.5969800,0.4944674,-0.4483262,nan,nan,nan,-nan,nan
1677904317,28.2928491,77.2950928,-0.5969800,0.4944674,-0.4483262,nan,nan,nan,-nan,nan
1677904317,28.2928491,77.2950928,-0.7165788,0.4944674,-0.4754141,nan,nan,nan,-nan,nan
1677904317,28.2928491,77.2950928,-0.7165788,0.4944674,-0.4754141,nan,nan,nan,-nan,nan
1677904317,28.2928491,77.2950928,-0.7165788,0.4944674,-0.4754141,nan,nan,nan,-nan,nan
1677904317,28.2928491,77.2950928,-0.7165788,0.4944674,-0.4754141,nan,nan,nan,-nan,nan
1677904317,28.2928491,77.2950928,-0.7165788,0.4944674,-0.4754141,nan,nan,nan,-nan,nan
1677904317,28.2928491,77.2950928,-0.7165788,0.4944674,-0.4754141,nan,nan,nan,-nan,nan
1677904318,28.2928491,77.2950928,-0.7165788,0.4944674,-0.4749282,nan,nan,nan,-nan,nan
1677904318,28.2928418,77.2950928,-0.7165788,0.4944674,-0.4749749,nan,nan,nan,-nan,nan
1677904318,28.2928418,77.2950928,-0.7165788,0.4944674,-0.4749749,nan,nan,nan,-nan,nan
1677904318,28.2928418,77.2950928,-0.6327499,0.2119027,-0.4356067,nan,nan,nan,-nan,nan
1677904318,28.2928418,77.2950928,-0.5000060,0.2119027,-0.4093699,nan,nan,nan,-nan,nan
1677904318,28.2928418,77.2950928,-0.5000060,0.2119027,-0.4093699,nan,nan,nan,-nan,nan
1677904318,28.2928418,77.2950928,-0.5000060,0.2119027,-0.4093699,nan,nan,nan,-nan,nan
1677904318,28.2928418,77.2950928,-0.5000060,0.2119027,-0.4093699,nan,nan,nan,-nan,nan
1677904318,28.2928418,77.2950928,-0.5000060,0.2119027,-0.4093699,nan,nan,nan,-nan,nan
1677904318,28.2928418,77.2950928,-0.5000060,0.2119027,-0.4093699,nan,nan,nan,-nan,nan
1677904319,28.2928418,77.2950928,-0.5000060,0.2119027,-0.4093699,nan,nan,nan,-nan,nan
1677904319,28.2928418,77.2950928,-0.5000060,0.2119027,-0.4079088,nan,nan,nan,-nan,nan
1677904319,28.2928369,77.2950977,-0.5000060,0.2119027,-0.4086765,nan,nan,nan,-nan,nan
1677904319,28.2928369,77.2950977,-nan,1.2687765,-nan,nan,nan,nan,-nan,nan
1677904319,28.2928369,77.2950977,-nan,1.2687765,-nan,nan,nan,nan,-nan,nan
1677904319,28.2928369,77.2950977,-nan,1.2687765,-nan,nan,nan,nan,-nan,nan
1677904319,28.2928369,77.2950977,-nan,1.2687765,-nan,nan,nan,nan,-nan,nan
1677904319,28.2928369,77.2950977,-nan,1.2687765,-nan,nan,nan,nan,-nan,nan
1677904319,28.2928369,77.2950977,-nan,1.2687765,-nan,nan,nan,nan,-nan,nan
1677904319,28.2928369,77.2950977,-nan,1.2687765,-nan,nan,nan,nan,-nan,nan
1677904320,28.2928369,77.2950977,-nan,1.2687765,-nan,nan,nan,nan,-nan,nan
1677904320,28.2928369,77.2950977,-nan,1.2687765,-nan,nan,nan,nan,-nan,nan
1677904320,28.2928369,77.2950977,-nan,1.2687765,-nan,nan,nan,nan,-nan,nan
1677904320,28.2928296,77.2951025,-nan,1.2687765,-nan,nan,nan,nan,-nan,nan
1677904320,28.2928296,77.2951025,-0.6831068,0.1363250,-0.4427617,nan,nan,nan,-nan,nan
1677904320,28.2928296,77.2951025,-0.6831068,0.1363250,-0.4427617,nan,nan,nan,-nan,nan
1677904320,28.2928296,77.2951025,-0.6918700,0.1363250,-0.4439993,nan,nan,nan,-nan,nan
1677904320,28.2928296,77.2951025,-0.6918700,0.1363250,-0.4439993,nan,nan,nan,-nan,nan
1677904320,28.2928296,77.2951025,-0.6918700,0.1363250,-0.4439993,nan,nan,nan,-nan,nan
1677904320,28.2928296,77.2951025,-0.6918700,0.1363250,-0.4439993,nan,nan,nan,-nan,nan
1677904321,28.2928296,77.2951025,-0.6918700,0.1363250,-0.4439993,nan,nan,nan,-nan,nan
1677904321,28.2928296,77.2951025,-0.6918700,0.1363250,-0.4439993,nan,nan,nan,-nan,nan
1677904321,28.2928296,77.2951025,-0.6918700,0.1363250,-0.4453408,nan,nan,nan,-nan,nan
1677904321,28.2928271,77.2951074,-0.6918700,0.1363250,-0.4458871,nan,nan,nan,-nan,nan
1677904321,28.2928271,77.2951074,-0.6918700,0.1363250,-0.4458871,nan,nan,nan,-nan,nan
1677904321,28.2928271,77.2951074,-0.6994680,0.1913569,-0.4475167,nan,nan,nan,-nan,nan
1677904321,28.2928271,77.2951074,-0.5944545,0.1913569,-0.4300886,nan,nan,nan,-nan,nan
1677904321,28.2928271,77.2951074,-0.5944545,0.1913569,-0.4300886,nan,nan,nan,-nan,nan
1677904321,28.2928271,77.2951074,-0.5944545,0.1913569,-0.4300886,nan,nan,nan,-nan,nan
1677904321,28.2928271,77.2951074,-0.5944545,0.1913569,-0.4300886,nan,nan,nan,-nan,nan
1677904322,28.2928271,77.2951074,-0.5944545,0.1913569,-0.4300886,nan,nan,nan,-nan,nan
1677904322,28.2928271,77.2951074,-0.5944545,0.1913569,-0.4300886,nan,nan,nan,-nan,nan
1677904322,28.2928271,77.2951074,-0.5944545,0.1913569,-0.4300886,nan,nan,nan,-nan,nan
1677904322,28.2928271,77.2951074,-0.5944545,0.1913569,-0.4299915,nan,nan,nan,-nan,nan
1677904322,28.2928247,77.2951172,-0.5944545,0.1913569,-0.4294795,nan,nan,nan,-nan,nan
1677904322,28.2928247,77.2951172,-0.5944545,0.1913569,-0.4294795,nan,nan,nan,-nan,nan
1677904322,28.2928247,77.2951172,-0.5929764,0.1796890,-0.4292020,nan,nan,nan,-nan,nan
1677904322,28.2928247,77.2951172,-0.5060025,0.1796890,-0.4119501,nan,nan,nan,-nan,nan
1677904322,28.2928247,77.2951172,-0.5060025,0.1796890,-0.4119501,nan,nan,nan,-nan,nan
1677904322,28.2928247,77.2951172,-0.5060025,0.1796890,-0.4119501,nan,nan,nan,-nan,nan
1677904323,28.2928247,77.2951172,-0.5060025,0.1796890,-0.4119501,nan,nan,nan,-nan,nan
1677904323,28.2928247,77.2951172,-0.5060025,0.1796890,-0.4119501,nan,nan,nan,-nan,nan
1677904323,28.2928247,77.2951172,-0.5060025,0.1796890,-0.4119501,nan,nan,nan,-nan,nan
1677904323,28.2928247,77.2951172,-0.5060025,0.1796890,-0.4105475,nan,nan,nan,-nan,nan
1677904323,28.2928247,77.2951367,-0.5060025,0.1796890,-0.4109874,nan,nan,nan,-nan,nan
1677904323,28.2928247,77.2951367,-0.5084611,0.2025530,-0.4112574,nan,nan,nan,-nan,nan
1677904323,28.2928247,77.2951367,-0.5084611,0.2025530,-0.4112574,nan,nan,nan,-nan,nan
1677904323,28.2928247,77.2951367,-nan,0.2025530,-nan,nan,nan,nan,-nan,nan
1677904323,28.2928247,77.2951367,-nan,0.2025530,-nan,nan,nan,nan,-nan,nan
1677904323,28.2928247,77.2951367,-nan,0.2025530,-nan,nan,nan,nan,-nan,nan
1677904324,28.2928247,77.2951367,-nan,0.2025530,-nan,nan,nan,nan,-nan,nan
1677904324,28.2928247,77.2951367,-nan,0.2025530,-nan,nan,nan,nan,-nan,nan
1677904324,28.2928247,77.2951367,-nan,0.2025530,-nan,nan,nan,nan,-nan,nan
1677904324,28.2928247,77.2951367,-nan,0.2025530,-nan,nan,nan,nan,-nan,nan
1677904324,28.2928247,77.2951367,-nan,0.2025530,-nan,nan,nan,nan,-nan,nan
1677904324,28.2928320,77.2951904,-nan,0.2025530,-nan,nan,nan,-nan,0.2025530,-nan
1677904324,28.2928320,77.2951904,-nan,0.2581961,-nan,nan,nan,-nan,0.2581961,-nan
1677904324,28.2928320,77.2951904,-nan,0.2581961,-nan,nan,nan,-nan,0.2581961,-nan
1677904324,28.2928320,77.2951904,-0.5502287,0.2581961,-0.4215359,nan,nan,-0.5502287,0.2581961,-0.4215359
1677904325,28.2928320,77.2951904,-0.5502287,0.2581961,-0.4215359,nan,nan,-0.5502287,0.2581961,-0.4215359
1677904325,28.2928320,77.2951904,-0.5502287,0.2581961,-0.4215359,nan,nan,-0.5502287,0.2581961,-0.4215359
1677904325,28.2928320,77.2951904,-0.5502287,0.2581961,-0.4215359,nan,nan,-0.5502287,0.2581961,-0.4215359
1677904325,28.2928320,77.2951904,-0.5502287,0.2581961,-0.4215359,nan,nan,-0.5502287,0.2581961,-0.4215359
1677904325,28.2928320,77.2951904,-0.5502287,0.2581961,-0.4215359,nan,nan,-0.5502287,0.2581961,-0.4215359
1677904325,28.2928320,77.2951904,-0.5502287,0.2581961,-0.4207906,nan,nan,-0.5502287,0.2581961,-0.4207906
1677904325,28.2928320,77.2951904,-0.5502287,0.2581961,-0.4219282,nan,nan,-0.5502287,0.2581961,-0.4219282
1677904325,28.2928320,77.2951904,-0.5739584,0.3733824,-0.4322184,nan,nan,-0.5739584,0.3733824,-0.4322184
1677904325,28.2928320,77.2951904,-0.5739584,0.3733824,-0.4322184,nan,nan,-0.5739584,0.3733824,-0.4322184
1677904325,28.2928320,77.2951904,-0.5207090,0.3733824,-0.4197712,nan,nan,-0.5207090,0.3733824,-0.4197712
1677904326,28.2928320,77.2951904,-0.5207090,0.3733824,-0.4197712,nan,nan,-0.5207090,0.3733824,-0.4197712
1677904326,28.2928320,77.2951904,-0.5207090,0.3733824,-0.4197712,nan,nan,-0.5207090,0.3733824,-0.4197712
1677904326,28.2928320,77.2951904,-0.5207090,0.3733824,-0.4197712,nan,nan,-0.5207090,0.3733824,-0.4197712
1677904326,28.2928320,77.2951904,-0.5207090,0.3733824,-0.4197712,nan,nan,-0.5207090,0.3733824,-0.4197712
1677904326,28.2928320,77.2951904,-0.5207090,0.3733824,-0.4205334,nan,nan,-0.5207090,0.3733824,-0.4205334
1677904326,28.2928320,77.2951904,-0.5207090,0.3733824,-0.4210827,nan,nan,-0.5207090,0.3733824,-0.4210827
1677904326,28.2928418,77.2952197,-0.5207090,0.3733824,-0.4207737,nan,nan,nan,-nan,nan
1677904326,28.2928418,77.2952197,-0.4829541,0.0713058,-0.4125245,nan,nan,nan,-nan,nan
1677904326,28.2928418,77.2952197,-0.4829541,0.0713058,-0.4125245,nan,nan,nan,-nan,nan
1677904326,28.2928418,77.2952197,-0.6391187,0.0713058,-0.4401398,nan,nan,nan,-nan,nan
1677904327,28.2928418,77.2952197,-0.6391187,0.0713058,-0.4401398,nan,nan,nan,-nan,nan
1677904327,28.2928418,77.2952197,-0.6391187,0.0713058,-0.4401398,nan,nan,nan,-nan,nan
1677904327,28.2928418,77.2952197,-0.6391187,0.0713058,-0.4401398,nan,nan,nan,-nan,nan
1677904327,28.2928418,77.2952197,-0.6391187,0.0713058,-0.4401398,nan,nan,nan,-nan,nan
1677904327,28.2928418,77.2952197,-0.6391187,0.0713058,-0.4401398,nan,nan,nan,-nan,nan
1677904327,28.2928418,77.2952197,-0.6391187,0.0713058,-0.4404972,nan,nan,nan,-nan,nan
1677904327,28.2928418,77.2952197,-0.6391187,0.0713058,-0.4397930,nan,nan,nan,-nan,nan
1677904327,28.2928516,77.2952539,-0.6391187,0.0713058,-0.4405513,nan,nan,nan,-nan,nan
1677904327,28.2928516,77.2952539,-nan,nan,-nan,nan,nan,nan,-nan,nan
1677904327,28.2928516,77.2952539,-nan,nan,-nan,nan,nan,nan,-nan,nan
1677904328,28.2928516,77.2952539,-nan,nan,-nan,nan,nan,nan,-nan,nan
1677904328,28.2928516,77.2952539,-nan,nan,-nan,nan,nan,nan,-nan,nan
1677904328,28.2928516,77.2952539,-nan,nan,-nan,nan,nan,nan,-nan,nan
1677904328,28.2928516,77.2952539,-nan,nan,-nan,nan,nan,nan,-nan,nan
1677904328,28.2928516,77.2952539,-nan,nan,-nan,nan,nan,nan,-nan,nan
1677904328,28.2928516,77.2952539,-nan,nan,-nan,nan,nan,nan,-nan,nan
1677904328,28.2928516,77.2952539,-nan,nan,-nan,nan,nan,nan,-nan,nan
1677904328,28.2928589,77.2952930,-nan,nan,-nan,nan,nan,nan,-nan,nan
1677904328,28.2928589,77.2952930,-nan,1.0783403,-nan,nan,nan,nan,-nan,nan
1677904328,28.2928589,77.2952930,-nan,1.0783403,-nan,nan,nan,nan,-nan,nan
1677904329,28.2928589,77.2952930,-nan,1.0783403,-nan,nan,nan,nan,-nan,nan
1677904329,28.2928589,77.2952930,-nan,1.0783403,-nan,nan,nan,nan,-nan,nan
1677904329,28.2928589,77.2952930,-nan,1.0783403,-nan,nan,nan,nan,-nan,nan
1677904329,28.2928589,77.2952930,-nan,1.0783403,-nan,nan,nan,nan,-nan,nan
1677904329,28.2928589,77.2952930,-nan,1.0783403,-nan,nan,nan,nan,-nan,nan
1677904329,28.2928589,77.2952930,-nan,1.0783403,-nan,nan,nan,nan,-nan,nan
1677904329,28.2928589,77.2952930,-nan,1.0783403,-nan,nan,nan,nan,-nan,nan
1677904329,28.2928589,77.2952930,-nan,1.0783403,-nan,nan,nan,nan,-nan,nan
1677904329,28.2928687,77.2953320,-nan,1.0783403,-nan,nan,nan,nan,-nan,nan
1677904329,28.2928687,77.2953320,-1.0707709,0.4526546,-0.5200974,nan,nan,nan,-nan,nan
1677904330,28.2928687,77.2953320,-1.0707709,0.4526546,-0.5200974,nan,nan,nan,-nan,nan
1677904330,28.2928687,77.2953320,-0.6853956,0.4526546,-0.4659102,nan,nan,nan,-nan,nan
1677904330,28.2928687,77.2953320,-0.6853956,0.4526546,-0.4659102,nan,nan,nan,-nan,nan
1677904330,28.2928687,77.2953320,-0.6853956,0.4526546,-0.4659102,nan,nan,nan,-nan,nan
1677904330,28.2928687,77.2953320,-0.6853956,0.4526546,-0.4659102,nan,nan,nan,-nan,nan
1677904330,28.2928687,77.2953320,-0.6853956,0.4526546,-0.4659102,nan,nan,nan,-nan,nan
1677904330,28.2928687,77.2953320,-0.6853956,0.4526546,-0.4640681,nan,nan,nan,-nan,nan
1677904330,28.2928687,77.2953320,-0.6853956,0.4526546,-0.4649490,nan,nan,nan,-nan,nan
1677904330,28.2928735,77.2953711,-0.6853956,0.4526546,-0.4649490,nan,nan,nan,-nan,nan
1677904330,28.2928735,77.2953711,-0.6313441,0.2675449,-0.4391774,nan,nan,nan,-nan,nan
1677904331,28.2928735,77.2953711,-nan,0.2675449,-nan,nan,nan,nan,-nan,nan
1677904331,28.2928735,77.2953711,-nan,0.2675449,-nan,nan,nan,nan,-nan,nan
1677904331,28.2928735,77.2953711,-nan,0.2675449,-nan,nan,nan,nan,-nan,nan
1677904331,28.2928735,77.2953711,-nan,0.2675449,-nan,nan,nan,nan,-nan,nan
1677904331,28.2928735,77.2953711,-nan,0.2675449,-nan,nan,nan,nan,-nan,nan
1677904331,28.2928735,77.2953711,-nan,0.2675449,-nan,nan,nan,nan,-nan,nan
1677904331,28.2928784,77.2954102,-nan,0.2675449,-nan,nan,nan,nan,-nan,nan
1677904331,28.2928784,77.2954102,-nan,0.0595691,-nan,nan,nan,nan,-nan,nan
1677904331,28.2928784,77.2954102,-nan,0.0595691,-nan,nan,nan,nan,-nan,nan
1677904331,28.2928784,77.2954102,-0.6178533,0.0595691,-0.4374459,nan,nan,nan,-nan,nan
1677904332,28.2928784,77.2954102,-0.6178533,0.0595691,-0.4374459,nan,nan,nan,-nan,nan
1677904332,28.2928784,77.2954102,-0.6178533,0.0595691,-0.4374459,nan,nan,nan,-nan,nan
1677904332,28.2928784,77.2954102,-0.6178533,0.0595691,-0.4374459,nan,nan,nan,-nan,nan
1677904332,28.2928784,77.2954102,-0.6178533,0.0595691,-0.4374459,nan,nan,nan,-nan,nan
1677904332,28.2928784,77.2954102,-0.6178533,0.0595691,-0.4374459,nan,nan,nan,-nan,nan
1677904332,28.2928784,77.2954102,-0.6178533,0.0595691,-0.4362939,nan,nan,nan,-nan,nan
1677904332,28.2928833,77.2954541,-0.6178533,0.0595691,-0.4361361,nan,nan,nan,-nan,nan
1677904332,28.2928833,77.2954541,-0.6178533,0.0595691,-0.4361361,nan,nan,nan,-nan,nan
1677904332,28.2928833,77.2954541,-0.6312599,0.2011832,-0.4361475,nan,nan,nan,-nan,nan
1677904333,28.2928833,77.2954541,-nan,0.2011832,-nan,nan,nan,nan,-nan,nan
1677904333,28.2928833,77.2954541,-nan,0.2011832,-nan,nan,nan,nan,-nan,nan
1677904333,28.2928833,77.2954541,-nan,0.2011832,-nan,nan,nan,nan,-nan,nan
1677904333,28.2928833,77.2954541,-nan,0.2011832,-nan,nan,nan,nan,-nan,nan
1677904333,28.2928833,77.2954541,-nan,0.2011832,-nan,nan,nan,nan,-nan,nan
1677904333,28.2928833,77.2954541,-nan,0.2011832,-nan,nan,nan,nan,-nan,nan
1677904333,28.2928833,77.2954541,-nan,0.2011832,-nan,nan,nan,nan,-nan,nan
1677904333,28.2928833,77.2954541,-nan,0.2011832,-nan,nan,nan,nan,-nan,nan
1677904333,28.2928833,77.2954980,-nan,0.2011832,-nan,nan,nan,nan,-nan,nan
1677904333,28.2928833,77.2954980,-nan,0.2011832,-nan,nan,nan,nan,-nan,nan
1677904334,28.2928833,77.2954980,-nan,0.1687883,-nan,nan,nan,nan,-nan,nan
1677904334,28.2928833,77.2954980,-0.6610488,0.1687883,-0.4409121,nan,nan,nan,-nan,nan
1677904334,28.2928833,77.2954980,-0.6610488,0.1687883,-0.4409121,nan,nan,nan,-nan,nan
1677904334,28.2928833,77.2954980,-0.6610488,0.1687883,-0.4409121,nan,nan,nan,-nan,nan
1677904334,28.2928833,77.2954980,-0.6610488,0.1687883,-0.4409121,nan,nan,nan,-nan,nan
1677904334,28.2928833,77.2954980,-0.6610488,0.1687883,-0.4409121,nan,nan,nan,-nan,nan
1677904334,28.2928833,77.2954980,-0.6610488,0.1687883,-0.4409121,nan,nan,nan,-nan,nan
1677904334,28.2928833,77.2954980,-0.6610488,0.1687883,-0.4409121,nan,nan,nan,-nan,nan
1677904334,28.2928833,77.2954980,-0.6610488,0.1687883,-0.4422999,nan,nan,nan,-nan,nan
1677904334,28.2928735,77.2955420,-0.6610488,0.1687883,-0.4420919,nan,nan,nan,-nan,nan
1677904335,28.2928735,77.2955420,-0.6610488,0.1687883,-0.4420919,nan,nan,nan,-nan,nan
1677904335,28.2928735,77.2955420,-0.6780361,0.2659008,-0.4474571,nan,nan,nan,-nan,nan
1677904335,28.2928735,77.2955420,-nan,0.2659008,-nan,nan,nan,nan,-nan,nan
1677904335,28.2928735,77.2955420,-nan,0.2659008,-nan,nan,nan,nan,-nan,nan
1677904335,28.2928735,77.2955420,-nan,0.2659008,-nan,nan,nan,nan,-nan,nan
1677904335,28.2928735,77.2955420,-nan,0.2659008,-nan,nan,nan,nan,-nan,nan
1677904335,28.2928735,77.2955420,-nan,0.2659008,-nan,nan,nan,nan,-nan,nan
1677904335,28.2928735,77.2955420,-nan,0.2659008,-nan,nan,nan,nan,-nan,nan
1677904335,28.2928735,77.2955420,-nan,0.2659008,-nan,nan,nan,nan,-nan,nan
1677904335,28.2928735,77.2956250,-nan,0.2659008,-nan,nan,nan,nan,-nan,nan
1677904336,28.2928735,77.2956250,-nan,0.1706449,-nan,nan,nan,nan,-nan,nan
1677904336,28.2928735,77.2956250,-nan,0.1706449,-nan,nan,nan,nan,-nan,nan
1677904336,28.2928735,77.2956250,-nan,0.1706449,-nan,nan,nan,nan,-nan,nan
1677904336,28.2928735,77.2956250,-nan,0.1706449,-nan,nan,nan,nan,-nan,nan
1677904336,28.2928735,77.2956250,-nan,0.1706449,-nan,nan,nan,nan,-nan,nan
1677904336,28.2928735,77.2956250,-nan,0.1706449,-nan,nan,nan,nan,-nan,nan
1677904336,28.2928735,77.2956250,-nan,0.1706449,-nan,nan,nan,nan,-nan,nan
1677904336,28.2928735,77.2956250,-nan,0.1706449,-nan,nan,nan,nan,-nan,nan
1677904336,28.2928735,77.2956250,-nan,0.1706449,-nan,nan,nan,nan,-nan,nan
1677904336,28.2928735,77.2956250,-nan,0.1706449,-nan,nan,nan,nan,-nan,nan
1677904337,28.2928735,77.2956250,-nan,0.1706449,-nan,nan,nan,nan,-nan,nan
1677904337,28.2928735,77.2956250,-nan,0.1347243,-nan,nan,nan,nan,-nan,nan
1677904337,28.2928735,77.2956250,-nan,0.1347243,-nan,nan,nan,nan,-nan,nan
1677904337,28.2928735,77.2956250,-0.6769131,0.1347243,-0.4421028,nan,nan,nan,-nan,nan
1677904337,28.2928735,77.2956250,-0.6769131,0.1347243,-0.4421028,nan,nan,nan,-nan,nan
1677904337,28.2928735,77.2956250,-0.6769131,0.1347243,-0.4421028,nan,nan,nan,-nan,nan
1677904337,28.2928735,77.2956250,-0.6769131,0.1347243,-0.4421028,nan,nan,nan,-nan,nan
1677904337,28.2928735,77.2956250,-0.6769131,0.1347243,-0.4421028,nan,nan,nan,-nan,nan
1677904337,28.2928735,77.2956250,-0.6769131,0.1347243,-0.4421028,nan,nan,nan,-nan,nan
1677904337,28.2928735,77.2956250,-0.6769131,0.1347243,-0.4421028,nan,nan,nan,-nan,nan
1677904338,28.2928735,77.2956250,-0.6769131,0.1347243,-0.4425105,nan,nan,nan,-nan,nan
1677904338,28.2928711,77.2957080,-0.6769131,0.1347243,-0.4421296,nan,nan,nan,-nan,nan
1677904338,28.2928711,77.2957080,-0.6769131,0.1347243,-0.4421296,nan,nan,nan,-nan,nan
1677904338,28.2928711,77.2957080,-0.6736306,0.0999588,-0.4420122,nan,nan,nan,-nan,nan
1677904338,28.2928711,77.2957080,-0.7331216,0.0999588,-0.4493413,nan,nan,nan,-nan,nan
1677904338,28.2928711,77.2957080,-0.7331216,0.0999588,-0.4493413,nan,nan,nan,-nan,nan
1677904338,28.2928711,77.2957080,-0.7331216,0.0999588,-0.4493413,nan,nan,nan,-nan,nan
1677904338,28.2928711,77.2957080,-0.7331216,0.0999588,-0.4493413,nan,nan,nan,-nan,nan
1677904338,28.2928711,77.2957080,-0.7331216,0.0999588,-0.4493413,nan,nan,nan,-nan,nan
1677904338,28.2928711,77.2957080,-0.7331216,0.0999588,-0.4493413,nan,nan,nan,-nan,nan
1677904339,28.2928711,77.2957080,-0.7331216,0.0999588,-0.4493413,nan,nan,nan,-nan,nan
1677904339,28.2928711,77.2957080,-0.7331216,0.0999588,-0.4498382,nan,nan,nan,-nan,nan
1677904341,28.2928394,77.2958447,-nan,0.2316623,-nan,nan,nan,-nan,0.2316623,-nan
1677904341,28.2928394,77.2958447,-nan,0.2316623,-nan,nan,nan,-nan,0.2316623,-nan
1677904341,28.2928394,77.2958447,-nan,0.3528926,-nan,nan,nan,-nan,0.3528926,-nan
1677904341,28.2928394,77.2958447,-nan,0.3528926,-nan,nan,nan,-nan,0.3528926,-nan
1677904341,28.2928394,77.2958447,-0.3884026,0.3528926,-0.3851925,nan,nan,-0.3884026,0.3528926,-0.3851925
1677904341,28.2928394,77.2958447,-0.3884026,0.3528926,-0.3851925,nan,nan,-0.3884026,0.3528926,-0.3851925
1677904342,28.2928394,77.2958447,-0.3884026,0.3528926,-0.3851925,nan,nan,-0.3884026,0.3528926,-0.3851925
1677904342,28.2928394,77.2958447,-0.3884026,0.3528926,-0.3851925,nan,nan,-0.3884026,0.3528926,-0.3851925
1677904342,28.2928394,77.2958447,-0.3884026,0.3528926,-0.3851925,nan,nan,-0.3884026,0.3528926,-0.3851925
1677904342,28.2928394,77.2958447,-0.3884026,0.3528926,-0.3840156,nan,nan,-0.3884026,0.3528926,-0.3840156
1677904342,28.2928394,77.2958447,-0.3884026,0.3528926,-0.3845833,nan,nan,-0.3884026,0.3528926,-0.3845833
1677904342,28.2928394,77.2958447,-0.3884026,0.3528926,-0.3848482,nan,nan,-0.3884026,0.3528926,-0.3848482
1677904342,28.2928394,77.2958447,-0.3889949,0.3567956,-0.3851307,nan,nan,-0.3889949,0.3567956,-0.3851307
1677904342,28.2928394,77.2958447,-0.3889949,0.3567956,-0.3851307,nan,nan,-0.3889949,0.3567956,-0.3851307
1677904342,28.2928394,77.2958447,-0.6752175,0.3567956,-0.4516864,nan,nan,-0.6752175,0.3567956,-0.4516864
1677904342,28.2928394,77.2958447,-0.6752175,0.3567956,-0.4516864,nan,nan,-0.6752175,0.3567956,-0.4516864
1677904343,28.2928394,77.2958447,-0.6752175,0.3567956,-0.4516864,nan,nan,-0.6752175,0.3567956,-0.4516864
1677904343,28.2928394,77.2958447,-0.6752175,0.3567956,-0.4516864,nan,nan,-0.6752175,0.3567956,-0.4516864
1677904343,28.2928394,77.2958447,-0.6752175,0.3567956,-0.4516864,nan,nan,-0.6752175,0.3567956,-0.4516864
1677904343,28.2928394,77.2958447,-0.6752175,0.3567956,-0.4532501,nan,nan,-0.6752175,0.3567956,-0.4532501
1677904343,28.2928247,77.2958740,-0.6752175,0.3567956,-0.4526669,nan,nan,nan,-nan,nan
1677904343,28.2928247,77.2958740,-0.6752175,0.3567956,-0.4526669,nan,nan,nan,-nan,nan
1677904343,28.2928247,77.2958740,-0.6403058,0.1985693,-0.4387169,nan,nan,nan,-nan,nan
1677904343,28.2928247,77.2958740,-nan,0.1985693,-nan,nan,nan,nan,-nan,nan
1677904343,28.2928247,77.2958740,-nan,0.1985693,-nan,nan,nan,nan,-nan,nan
1677904344,28.2928247,77.2958740,-nan,0.1985693,-nan,nan,nan,nan,-nan,nan
1677904344,28.2928247,77.2958740,-nan,0.1985693,-nan,nan,nan,nan,-nan,nan
1677904344,28.2928247,77.2958740,-nan,0.1985693,-nan,nan,nan,nan,-nan,nan
1677904344,28.2928247,77.2958740,-nan,0.1985693,-nan,nan,nan,nan,-nan,nan
1677904344,28.2928247,77.2958740,-nan,0.1985693,-nan,nan,nan,nan,-nan,nan
1677904344,28.2928247,77.2958740,-nan,0.1985693,-nan,nan,nan,nan,-nan,nan
1677904344,28.2928125,77.2959033,-nan,0.1985693,-nan,nan,nan,nan,-nan,nan
1677904344,28.2928125,77.2959033,-nan,0.1985693,-nan,nan,nan,nan,-nan,nan
1677904344,28.2928125,77.2959033,-nan,0.2156478,-nan,nan,nan,nan,-nan,nan
1677904344,28.2928125,77.2959033,-0.5457223,0.2156478,-0.4209572,nan,nan,nan,-nan,nan
1677904345,28.2928125,77.2959033,-0.5457223,0.2156478,-0.4209572,nan,nan,nan,-nan,nan
1677904345,28.2928125,77.2959033,-0.5457223,0.2156478,-0.4209572,nan,nan,nan,-nan,nan
1677904345,28.2928125,77.2959033,-0.5457223,0.2156478,-0.4209572,nan,nan,nan,-nan,nan
1677904345,28.2928125,77.2959033,-0.5457223,0.2156478,-0.4209572,nan,nan,nan,-nan,nan
1677904345,28.2928125,77.2959033,-0.5457223,0.2156478,-0.4211269,nan,nan,nan,-nan,nan
1677904345,28.2927979,77.2959277,-0.5457223,0.2156478,-0.4215851,nan,nan,nan,-nan,nan
1677904345,28.2927979,77.2959277,-0.6175890,0.5041948,-0.4569398,nan,nan,nan,-nan,nan
1677904345,28.2927979,77.2959277,-nan,0.5041948,-nan,nan,nan,nan,-nan,nan
1677904345,28.2927979,77.2959277,-nan,0.5041948,-nan,nan,nan,nan,-nan,nan
1677904345,28.2927979,77.2959277,-nan,0.5041948,-nan,nan,nan,nan,-nan,nan
1677904346,28.2927979,77.2959277,-nan,0.5041948,-nan,nan,nan,nan,-nan,nan
1677904346,28.2927979,77.2959277,-nan,0.5041948,-nan,nan,nan,nan,-nan,nan
1677904346,28.2927979,77.2959277,-nan,0.5041948,-nan,nan,nan,nan,-nan,nan
1677904346,28.2927979,77.2959277,-nan,0.5041948,-nan,nan,nan,nan,-nan,nan
1677904346,28.2927979,77.2959277,-nan,0.5041948,-nan,nan,nan,nan,-nan,nan
1677904348,28.2927783,77.2959814,-0.7752162,0.1914811,-0.4575965,nan,nan,nan,-nan,nan
1677904348,28.2927783,77.2959814,-0.9276632,0.5382400,-0.5233243,nan,nan,nan,-nan,nan
1677904348,28.2927783,77.2959814,-0.9276632,0.5382400,-0.5233243,nan,nan,nan,-nan,nan
1677904349,28.2927783,77.2959814,-0.6343263,0.5382400,-0.4661120,nan,nan,nan,-nan,nan
1677904349,28.2927783,77.2959814,-0.6343263,0.5382400,-0.4661120,nan,nan,nan,-nan,nan
1677904349,28.2927783,77.2959814,-0.6343263,0.5382400,-0.4661120,nan,nan,nan,-nan,nan
1677904349,28.2927783,77.2959814,-0.6343263,0.5382400,-0.4661120,nan,nan,nan,-nan,nan
1677904349,28.2927783,77.2959814,-0.6343263,0.5382400,-0.4661120,nan,nan,nan,-nan,nan
1677904349,28.2927783,77.2959814,-0.6343263,0.5382400,-0.4661120,nan,nan,nan,-nan,nan
1677904349,28.2927783,77.2959814,-0.6343263,0.5382400,-0.4667084,nan,nan,nan,-nan,nan
1677904351,28.2927368,77.2960059,-nan,0.1413754,-nan,nan,nan,nan,-nan,nan
1677904351,28.2927368,77.2960059,-nan,0.1413754,-nan,nan,nan,nan,-nan,nan
1677904352,28.2927368,77.2960059,-nan,0.0755872,-nan,nan,nan,nan,-nan,nan
1677904352,28.2927368,77.2960059,-nan,0.0755872,-nan,nan,nan,nan,-nan,nan
1677904352,28.2927368,77.2960059,-nan,0.0755872,-nan,nan,nan,nan,-nan,nan
1677904352,28.2927368,77.2960059,-nan,0.0755872,-nan,nan,nan,nan,-nan,nan
1677904352,28.2927368,77.2960059,-nan,0.0755872,-nan,nan,nan,nan,-nan,nan
1677904352,28.2927368,77.2960059,-nan,0.0755872,-nan,nan,nan,nan,-nan,nan
1677904352,28.2927368,77.2960059,-nan,0.0755872,-nan,nan,nan,nan,-nan,nan
1677904352,28.2927368,77.2960059,-nan,0.0755872,-nan,nan,nan,nan,-nan,nan
1677904352,28.2927222,77.2960156,-nan,0.0755872,-nan,nan,nan,nan,-nan,nan
1677904352,28.2927222,77.2960156,-nan,0.0755872,-nan,nan,nan,nan,-nan,nan
1677904353,28.2927222,77.2960156,-nan,1.1884092,-nan,nan,nan,nan,-nan,nan
1677904353,28.2927222,77.2960156,-1.1533878,1.1884092,-1.1176764,nan,nan,nan,-nan,nan
1677904353,28.2927222,77.2960156,-1.1533878,1.1884092,-1.1176764,nan,nan,nan,-nan,nan
1677904353,28.2927222,77.2960156,-1.1533878,1.1884092,-1.1176764,nan,nan,nan,-nan,nan
1677904353,28.2927222,77.2960156,-1.1533878,1.1884092,-1.1176764,nan,nan,nan,-nan,nan
1677904353,28.2927222,77.2960156,-1.1533878,1.1884092,-1.1176764,nan,nan,nan,-nan,nan
1677904353,28.2927222,77.2960156,-1.1533878,1.1884092,-1.1176764,nan,nan,nan,-nan,nan
1677904353,28.2927222,77.2960156,-1.1533878,1.1884092,-1.1176764,nan,nan,nan,-nan,nan
1677904353,28.2927222,77.2960156,-1.1533878,1.1884092,-1.2804465,nan,nan,nan,-nan,nan
1677904353,28.2927222,77.2960156,-1.1533878,1.1884092,-1.2836131,nan,nan,nan,-nan,nan
1677904354,28.2927222,77.2960156,-0.3658945,0.3065981,-0.4839466,nan,nan,nan,-nan,nan
1677904354,28.2927222,77.2960156,-0.3658945,0.3065981,-0.4839466,nan,nan,nan,-nan,nan
1677904354,28.2927222,77.2960156,-0.3958067,0.3065981,-0.4902988,nan,nan,nan,-nan,nan
1677904354,28.2927222,77.2960156,-0.3958067,0.3065981,-0.4902988,nan,nan,nan,-nan,nan
1677904354,28.2927222,77.2960156,-0.3958067,0.3065981,-0.4902988,nan,nan,nan,-nan,nan
1677904354,28.2927222,77.2960156,-0.3958067,0.3065981,-0.4902988,nan,nan,nan,-nan,nan
1677904354,28.2927222,77.2960156,-0.3958067,0.3065981,-0.4902988,nan,nan,nan,-nan,nan
1677904354,28.2927222,77.2960156,-0.3958067,0.3065981,-0.4902988,nan,nan,nan,-nan,nan
1677904354,28.2927222,77.2960156,-0.3958067,0.3065981,-0.4841104,nan,nan,nan,-nan,nan
1677904355,28.2927393,77.2960107,-0.3958067,0.3065981,-0.4855080,nan,nan,nan,-nan,nan
1677904355,28.2927393,77.2960107,-0.4029417,0.3557543,-0.4900431,nan,nan,nan,-nan,nan
1677904355,28.2927393,77.2960107,-0.4029417,0.3557543,-0.4900431,nan,nan,nan,-nan,nan
1677904355,28.2927393,77.2960107,-nan,0.3557543,-nan,nan,nan,nan,-nan,nan
1677904355,28.2927393,77.2960107,-nan,0.3557543,-nan,nan,nan,nan,-nan,nan
1677904355,28.2927393,77.2960107,-nan,0.3557543,-nan,nan,nan,nan,-nan,nan
1677904355,28.2927393,77.2960107,-nan,0.3557543,-nan,nan,nan,nan,-nan,nan
1677904355,28.2927393,77.2960107,-nan,0.3557543,-nan,nan,nan,nan,-nan,nan
1677904355,28.2927393,77.2960107,-nan,0.3557543,-nan,nan,nan,nan,-nan,nan
1677904355,28.2927417,77.2958887,-nan,0.3557543,-nan,nan,nan,nan,-nan,nan
1677904356,28.2927417,77.2958887,-nan,0.2665331,-nan,nan,nan,nan,-nan,nan
1677904356,28.2927417,77.2958887,-nan,0.2665331,-nan,nan,nan,nan,-nan,nan
1677904356,28.2927417,77.2958887,-nan,0.2665331,-nan,nan,nan,nan,-nan,nan
1677904356,28.2927417,77.2958887,-nan,0.2665331,-nan,nan,nan,nan,-nan,nan
1677904356,28.2927417,77.2958887,-nan,0.2665331,-nan,nan,nan,nan,-nan,nan
1677904356,28.2927417,77.2958887,-nan,0.2665331,-nan,nan,nan,nan,-nan,nan
1677904356,28.2927417,77.2958887,-nan,0.2665331,-nan,nan,nan,nan,-nan,nan
1677904356,28.2927417,77.2958887,-nan,0.2665331,-nan,nan,nan,nan,-nan,nan
1677904356,28.2927417,77.2958887,-nan,0.2665331,-nan,nan,nan,nan,-nan,nan
1677904356,28.2927417,77.2958887,-nan,0.2665331,-nan,nan,nan,nan,-nan,nan
1677904357,28.2927417,77.2958887,-nan,nan,-nan,nan,nan,nan,-nan,nan
1677904357,28.2927417,77.2958887,-nan,nan,-nan,nan,nan,nan,-nan,nan
1677904357,28.2927417,77.2958887,-nan,nan,-nan,nan,nan,nan,-nan,nan
1677904357,28.2927417,77.2958887,-nan,nan,-nan,nan,nan,nan,-nan,nan
1677904357,28.2927417,77.2958887,-nan,nan,-nan,nan,nan,nan,-nan,nan
1677904357,28.2927417,77.2958887,-nan,nan,-nan,nan,nan,nan,-nan,nan
1677904357,28.2927417,77.2958887,-nan,nan,-nan,nan,nan,nan,-nan,nan
1677904357,28.2927417,77.2958887,-nan,nan,-nan,nan,nan,nan,-nan,nan
1677904357,28.2927417,77.2958887,-nan,nan,-nan,nan,nan,nan,-nan,nan
1677904357,28.2927344,77.2958105,-nan,nan,-nan,nan,nan,nan,-nan,nan
1677904358,28.2927344,77.2958105,-nan,nan,-nan,nan,nan,nan,-nan,nan
1677904358,28.2927344,77.2958105,-0.4499895,0.1665611,-0.5726294,nan,nan,nan,-nan,nan
1677904358,28.2927344,77.2958105,-0.4697308,0.1665611,-0.5719215,nan,nan,nan,-nan,nan
1677904358,28.2927344,77.2958105,-0.4697308,0.1665611,-0.5719215,nan,nan,nan,-nan,nan
1677904358,28.2927344,77.2958105,-0.4697308,0.1665611,-0.5719215,nan,nan,nan,-nan,nan
1677904358,28.2927344,77.2958105,-0.4697308,0.1665611,-0.5719215,nan,nan,nan,-nan,nan
1677904358,28.2927344,77.2958105,-0.4697308,0.1665611,-0.5719215,nan,nan,nan,-nan,nan
1677904358,28.2927344,77.2958105,-0.4697308,0.1665611,-0.5719215,nan,nan,nan,-nan,nan
1677904358,28.2927344,77.2958105,-0.4697308,0.1665611,-0.5719215,nan,nan,nan,-nan,nan
1677904358,28.2927344,77.2958105,-0.4697308,0.1665611,-0.5484532,nan,nan,nan,-nan,nan
1677904359,28.2927173,77.2956934,-0.4697308,0.1665611,-0.5913967,nan,nan,nan,-nan,nan
1677904359,28.2927173,77.2956934,-0.4697308,0.1665611,-0.5913967,nan,nan,nan,-nan,nan
1677904359,28.2927173,77.2956934,-0.4660907,0.1159112,-0.5850925,nan,nan,nan,-nan,nan
1677904359,28.2927173,77.2956934,-0.4660907,0.1159112,-0.5850925,nan,nan,nan,-nan,nan
1677904359,28.2927173,77.2956934,-0.6238087,0.1159112,-0.5701486,nan,nan,nan,-nan,nan
1677904359,28.2927173,77.2956934,-0.6238087,0.1159112,-0.5701486,nan,nan,nan,-nan,nan
1677904359,28.2927173,77.2956934,-0.6238087,0.1159112,-0.5701486,nan,nan,nan,-nan,nan
1677904359,28.2927173,77.2956934,-0.6238087,0.1159112,-0.5701486,nan,nan,nan,-nan,nan
1677904359,28.2927173,77.2956934,-0.6238087,0.1159112,-0.5701486,nan,nan,nan,-nan,nan
1677904359,28.2927173,77.2956934,-0.6238087,0.1159112,-0.5701486,nan,nan,nan,-nan,nan
1677904360,28.2927173,77.2956934,-0.6238087,0.1159112,-0.5701486,nan,nan,nan,-nan,nan
1677904360,28.2927173,77.2956934,-0.6238087,0.1159112,-0.5660818,nan,nan,nan,-nan,nan
1677904360,28.2927124,77.2956494,-0.6238087,0.1159112,-0.5643497,nan,nan,nan,-nan,nan
1677904360,28.2927124,77.2956494,-0.6238087,0.1159112,-0.5643497,nan,nan,nan,-nan,nan
1677904360,28.2927124,77.2956494,-0.6200262,0.0539482,-0.5559862,nan,nan,nan,-nan,nan
1677904360,28.2927124,77.2956494,-nan,0.0539482,-nan,nan,nan,nan,-nan,nan
1677904360,28.2927124,77.2956494,-nan,0.0539482,-nan,nan,nan,nan,-nan,nan
1677904360,28.2927124,77.2956494,-nan,0.0539482,-nan,nan,nan,nan,-nan,nan
1677904360,28.2927124,77.2956494,-nan,0.0539482,-nan,nan,nan,nan,-nan,nan
1677904360,28.2927124,77.2956494,-nan,0.0539482,-nan,nan,nan,nan,-nan,nan
1677904361,28.2927124,77.2956494,-nan,0.0539482,-nan,nan,nan,nan,-nan,nan
1677904361,28.2927197,77.2956396,-nan,0.0539482,-nan,nan,nan,nan,-nan,nan
1677904361,28.2927197,77.2956396,-nan,0.2408224,-nan,nan,nan,nan,-nan,nan
1677904361,28.2927197,77.2956396,-nan,0.2408224,-nan,nan,nan,nan,-nan,nan
1677904361,28.2927197,77.2956396,-nan,0.2408224,-nan,nan,nan,nan,-nan,nan
1677904361,28.2927197,77.2956396,-nan,0.2408224,-nan,nan,nan,nan,-nan,nan
1677904361,28.2927197,77.2956396,-nan,0.2408224,-nan,nan,nan,nan,-nan,nan
1677904361,28.2927197,77.2956396,-nan,0.2408224,-nan,nan,nan,nan,-nan,nan
1677904361,28.2927197,77.2956396,-nan,0.2408224,-nan,nan,nan,nan,-nan,nan
1677904361,28.2927197,77.2956396,-nan,0.2408224,-nan,nan,nan,nan,-nan,nan
1677904362,28.2927197,77.2956396,-nan,0.2408224,-nan,nan,nan,nan,-nan,nan
1677904362,28.2927173,77.2956006,-nan,0.2408224,-nan,nan,nan,nan,-nan,nan
1677904362,28.2927173,77.2956006,-nan,0.2408224,-nan,nan,nan,nan,-nan,nan
1677904362,28.2927173,77.2956006,-nan,0.2127763,-nan,nan,nan,nan,-nan,nan
1677904362,28.2927173,77.2956006,-0.7931145,0.2127763,-0.5493298,nan,nan,nan,-nan,nan
1677904362,28.2927173,77.2956006,-0.7931145,0.2127763,-0.5493298,nan,nan,nan,-nan,nan
1677904362,28.2927173,77.2956006,-0.7931145,0.2127763,-0.5493298,nan,nan,nan,-nan,nan
1677904362,28.2927173,77.2956006,-0.7931145,0.2127763,-0.5493298,nan,nan,nan,-nan,nan
1677904362,28.2927173,77.2956006,-0.7931145,0.2127763,-0.5493298,nan,nan,nan,-nan,nan
1677904363,28.2927173,77.2956006,-0.7931145,0.2127763,-0.5493298,nan,nan,nan,-nan,nan
1677904363,28.2927173,77.2956006,-0.7931145,0.2127763,-0.5493298,nan,nan,nan,-nan,nan
1677904363,28.2927173,77.2956006,-0.7931145,0.2127763,-0.5485333,nan,nan,nan,-nan,nan
1677904363,28.2927148,77.2955664,-0.7931145,0.2127763,-0.5488920,nan,nan,nan,-nan,nan
1677904363,28.2927148,77.2955664,-nan,0.9071082,-nan,nan,nan,nan,-nan,nan
1677904363,28.2927148,77.2955664,-nan,0.9071082,-nan,nan,nan,nan,-nan,nan
1677904363,28.2927148,77.2955664,-0.7389629,0.9071082,-0.9817882,nan,nan,nan,-nan,nan
1677904363,28.2927148,77.2955664,-0.7389629,0.9071082,-0.9817882,nan,nan,nan,-nan,nan
1677904363,28.2927148,77.2955664,-0.7389629,0.9071082,-0.9817882,nan,nan,nan,-nan,nan
1677904363,28.2927148,77.2955664,-0.7389629,0.9071082,-0.9817882,nan,nan,nan,-nan,nan
1677904364,28.2927148,77.2955664,-0.7389629,0.9071082,-0.9817882,nan,nan,nan,-nan,nan
1677904364,28.2927148,77.2955664,-0.7389629,0.9071082,-0.9817882,nan,nan,nan,-nan,nan
1677904364,28.2927148,77.2955664,-0.7389629,0.9071082,-0.9817882,nan,nan,nan,-nan,nan
1677904364,28.2927148,77.2955664,-0.7389629,0.9071082,-0.9809681,nan,nan,nan,-nan,nan
1677904364,28.2927075,77.2955469,-0.7389629,0.9071082,-0.9814290,nan,nan,nan,-nan,nan
1677904364,28.2927075,77.2955469,-0.7389629,0.9071082,-0.9814290,nan,nan,nan,-nan,nan
1677904364,28.2927075,77.2955469,-0.4534690,0.3267540,-0.6079756,nan,nan,nan,-nan,nan
1677904364,28.2927075,77.2955469,-0.6013284,0.3267540,-0.6042138,nan,nan,nan,-nan,nan
1677904364,28.2927075,77.2955469,-0.6013284,0.3267540,-0.6042138,nan,nan,nan,-nan,nan
1677904364,28.2927075,77.2955469,-0.6013284,0.3267540,-0.6042138,nan,nan,nan,-nan,nan
1677904365,28.2927075,77.2955469,-0.6013284,0.3267540,-0.6042138,nan,nan,nan,-nan,nan
1677904365,28.2927075,77.2955469,-0.6013284,0.3267540,-0.6042138,nan,nan,nan,-nan,nan
1677904365,28.2927075,77.2955469,-0.6013284,0.3267540,-0.6042138,nan,nan,nan,-nan,nan
1677904365,28.2927075,77.2955469,-0.6013284,0.3267540,-0.6042138,nan,nan,nan,-nan,nan
1677904365,28.2927075,77.2955469,-0.6013284,0.3267540,-0.6063248,nan,nan,nan,-nan,nan
1677904365,28.2927026,77.2955225,-0.6013284,0.3267540,-0.6032579,nan,nan,nan,-nan,nan
1677904365,28.2927026,77.2955225,-0.6013284,0.3267540,-0.6032579,nan,nan,nan,-nan,nan
1677904365,28.2927026,77.2955225,-0.5695274,0.1128413,-0.5607979,nan,nan,nan,-nan,nan
1677904365,28.2927026,77.2955225,-0.4549494,0.1128413,-0.5713940,nan,nan,nan,-nan,nan
1677904365,28.2927026,77.2955225,-0.4549494,0.1128413,-0.5713940,nan,nan,nan,-nan,nan
1677904366,28.2927026,77.2955225,-0.4549494,0.1128413,-0.5713940,nan,nan,nan,-nan,nan
1677904366,28.2927026,77.2955225,-0.4549494,0.1128413,-0.5713940,nan,nan,nan,-nan,nan
1677904366,28.2927026,77.2955225,-0.4549494,0.1128413,-0.5713940,nan,nan,nan,-nan,nan
1677904366,28.2927026,77.2955225,-0.4549494,0.1128413,-0.5713940,nan,nan,nan,-nan,nan
1677904366,28.2927026,77.2955225,-0.4549494,0.1128413,-0.5713940,nan,nan,nan,-nan,nan
1677904366,28.2927026,77.2955225,-0.4549494,0.1128413,-0.5748368,nan,nan,nan,-nan,nan
1677904366,28.2927026,77.2955176,-0.4549494,0.1128413,-0.5762389,nan,nan,nan,-nan,nan
1677904366,28.2927026,77.2955176,-0.4581893,0.1607497,-0.5822994,nan,nan,nan,-nan,nan
1677904366,28.2927026,77.2955176,-0.4581893,0.1607497,-0.5822994,nan,nan,nan,-nan,nan
1677904366,28.2927026,77.2955176,-0.2271269,0.1607497,-0.5823988,nan,nan,nan,-nan,nan
1677904367,28.2927026,77.2955176,-0.2271269,0.1607497,-0.5823988,nan,nan,nan,-nan,nan
1677904367,28.2927026,77.2955176,-0.2271269,0.1607497,-0.5823988,nan,nan,nan,-nan,nan
1677904367,28.2927026,77.2955176,-0.2271269,0.1607497,-0.5823988,nan,nan,nan,-nan,nan
1677904367,28.2927026,77.2955176,-0.2271269,0.1607497,-0.5823988,nan,nan,nan,-nan,nan
1677904367,28.2927026,77.2955176,-0.2271269,0.1607497,-0.5823988,nan,nan,nan,-nan,nan
1677904367,28.2927026,77.2955176,-0.2271269,0.1607497,-0.5823988,nan,nan,nan,-nan,nan
1677904367,28.2927026,77.2955176,-0.2271269,0.1607497,-0.5853043,nan,nan,nan,-nan,nan
1677904367,28.2926978,77.2954883,-0.2271269,0.1607497,-0.5837880,nan,nan,nan,-nan,nan
1677904367,28.2926978,77.2954883,-0.2256755,0.1154200,-0.5806262,nan,nan,nan,-nan,nan
1677904367,28.2926978,77.2954883,-0.2256755,0.1154200,-0.5806262,nan,nan,nan,-nan,nan
1677904368,28.2926978,77.2954883,-0.2891850,0.1154200,-0.5814655,nan,nan,nan,-nan,nan
1677904368,28.2926978,77.2954883,-0.2891850,0.1154200,-0.5814655,nan,nan,nan,-nan,nan
1677904368,28.2926978,77.2954883,-0.2891850,0.1154200,-0.5814655,nan,nan,nan,-nan,nan
1677904368,28.2926978,77.2954883,-0.2891850,0.1154200,-0.5814655,nan,nan,nan,-nan,nan
1677904368,28.2926978,77.2954883,-0.2891850,0.1154200,-0.5814655,nan,nan,nan,-nan,nan
1677904368,28.2926978,77.2954883,-0.2891850,0.1154200,-0.5814655,nan,nan,nan,-nan,nan
1677904368,28.2926978,77.2954883,-0.2891850,0.1154200,-0.5869393,nan,nan,nan,-nan,nan
1677904368,28.2926929,77.2954639,-0.2891850,0.1154200,-0.5872726,nan,nan,nan,-nan,nan
1677904368,28.2926929,77.2954639,-0.2891850,0.1154200,-0.5872726,nan,nan,nan,-nan,nan
1677904368,28.2926929,77.2954639,-0.2974607,0.2595842,-0.6040443,nan,nan,nan,-nan,nan
1677904369,28.2926929,77.2954639,0.1260532,0.2595842,-0.5470051,nan,nan,nan,-nan,nan
1677904369,28.2926929,77.2954639,0.1260532,0.2595842,-0.5470051,nan,nan,nan,-nan,nan
1677904369,28.2926929,77.2954639,0.1260532,0.2595842,-0.5470051,nan,nan,nan,-nan,nan
1677904369,28.2926929,77.2954639,0.1260532,0.2595842,-0.5470051,nan,nan,nan,-nan,nan
1677904369,28.2926929,77.2954639,0.1260532,0.2595842,-0.5470051,nan,nan,nan,-nan,nan
1677904369,28.2926929,77.2954639,0.1260532,0.2595842,-0.5407930,nan,nan,nan,-nan,nan
1677904369,28.2926807,77.2954297,0.1260532,0.2595842,-0.5459470,nan,nan,nan,-nan,nan
1677904369,28.2926807,77.2954297,0.1260532,0.2595842,-0.5459470,nan,nan,nan,-nan,nan
1677904369,28.2926807,77.2954297,0.1242098,0.1964542,-0.5459486,nan,nan,nan,-nan,nan
1677904369,28.2926807,77.2954297,-0.5101959,0.1964542,-0.5882875,nan,nan,nan,-nan,nan
1677904370,28.2926807,77.2954297,-0.5101959,0.1964542,-0.5882875,nan,nan,nan,-nan,nan
1677904370,28.2926807,77.2954297,-0.5101959,0.1964542,-0.5882875,nan,nan,nan,-nan,nan
1677904370,28.2926807,77.2954297,-0.5101959,0.1964542,-0.5882875,nan,nan,nan,-nan,nan
1677904370,28.2926807,77.2954297,-0.5101959,0.1964542,-0.5882875,nan,nan,nan,-nan,nan
1677904370,28.2926807,77.2954297,-0.5101959,0.1964542,-0.5882875,nan,nan,nan,-nan,nan
1677904370,28.2926807,77.2954297,-0.5101959,0.1964542,-0.5882875,nan,nan,nan,-nan,nan
1677904370,28.2926807,77.2954297,-0.5101959,0.1964542,-0.5853853,nan,nan,nan,-nan,nan
1677904370,28.2926807,77.2954297,-0.5101959,0.1964542,-0.5848228,nan,nan,nan,-nan,nan
1677904370,28.2926807,77.2954297,-0.5101959,0.1964542,-0.5848228,nan,nan,nan,-nan,nan
1677904371,28.2926807,77.2954297,-0.5310855,0.3311368,-0.6144855,nan,nan,nan,-nan,nan
1677904371,28.2926807,77.2954297,-0.5310855,0.3311368,-0.6144855,nan,nan,nan,-nan,nan
1677904371,28.2926807,77.2954297,-0.3999084,0.3311368,-0.6161285,nan,nan,nan,-nan,nan
1677904371,28.2926807,77.2954297,-0.3999084,0.3311368,-0.6161285,nan,nan,nan,-nan,nan
1677904371,28.2926807,77.2954297,-0.3999084,0.3311368,-0.6161285,nan,nan,nan,-nan,nan
1677904371,28.2926807,77.2954297,-0.3999084,0.3311368,-0.6161285,nan,nan,nan,-nan,nan
1677904371,28.2926807,77.2954297,-0.3999084,0.3311368,-0.6161285,nan,nan,nan,-nan,nan
1677904371,28.2926807,77.2954297,-0.3999084,0.3311368,-0.6161285,nan,nan,nan,-nan,nan
1677904371,28.2926807,77.2954297,-0.3999084,0.3311368,-0.6152084,nan,nan,nan,-nan,nan
1677904371,28.2926709,77.2954150,-0.3999084,0.3311368,-0.6143997,nan,nan,nan,-nan,nan
1677904372,28.2926709,77.2954150,-0.3999084,0.3311368,-0.6143997,nan,nan,nan,-nan,nan
1677904372,28.2926709,77.2954150,-0.3808465,0.1378028,-0.5819281,nan,nan,nan,-nan,nan
1677904372,28.2926709,77.2954150,-0.3808465,0.1378028,-0.5819281,nan,nan,nan,-nan,nan
1677904372,28.2926709,77.2954150,-0.4728859,0.1378028,-0.5767019,nan,nan,nan,-nan,nan
1677904372,28.2926709,77.2954150,-0.4728859,0.1378028,-0.5767019,nan,nan,nan,-nan,nan
1677904372,28.2926709,77.2954150,-0.4728859,0.1378028,-0.5767019,nan,nan,nan,-nan,nan
1677904372,28.2926709,77.2954150,-0.4728859,0.1378028,-0.5767019,nan,nan,nan,-nan,nan
1677904372,28.2926709,77.2954150,-0.4728859,0.1378028,-0.5767019,nan,nan,nan,-nan,nan
1677904372,28.2926709,77.2954150,-0.4728859,0.1378028,-0.5772853,nan,nan,nan,-nan,nan
1677904372,28.2926709,77.2954150,-0.4728859,0.1378028,-0.5777065,nan,nan,nan,-nan,nan
1677904373,28.2926538,77.2954004,-0.4728859,0.1378028,-0.5780652,nan,nan,nan,-nan,nan
1677904373,28.2926538,77.2954004,-0.4680605,-0.0085398,-0.5632029,nan,nan,nan,-nan,nan
1677904373,28.2926538,77.2954004,-0.4680605,-0.0085398,-0.5632029,nan,nan,nan,-nan,nan
1677904373,28.2926538,77.2954004,-0.7722075,-0.0085398,-0.5053741,nan,nan,nan,-nan,nan
1677904373,28.2926538,77.2954004,-0.7722075,-0.0085398,-0.5053741,nan,nan,nan,-nan,nan
1677904373,28.2926538,77.2954004,-0.7722075,-0.0085398,-0.5053741,nan,nan,nan,-nan,nan
1677904373,28.2926538,77.2954004,-0.7722075,-0.0085398,-0.5053741,nan,nan,nan,-nan,nan
1677904373,28.2926538,77.2954004,-0.7722075,-0.0085398,-0.5053741,nan,nan,nan,-nan,nan
1677904373,28.2926538,77.2954004,-0.7722075,-0.0085398,-0.5053741,nan,nan,nan,-nan,nan
1677904373,28.2926538,77.2954004,-0.7722075,-0.0085398,-0.5053741,nan,nan,nan,-nan,nan
1677904374,28.2926538,77.2954004,-0.7722075,-0.0085398,-0.5069594,nan,nan,nan,-nan,nan
1677904374,28.2926489,77.2954004,-0.7722075,-0.0085398,-0.5071995,nan,nan,nan,-nan,nan
1677904374,28.2926489,77.2954004,-0.7722075,-0.0085398,-0.5071995,nan,nan,nan,-nan,nan
1677904374,28.2926489,77.2954004,-0.7727166,-0.0334330,-0.5036477,nan,nan,nan,-nan,nan
1677904374,28.2926489,77.2954004,-nan,-0.0334330,-nan,nan,nan,nan,-nan,nan
1677904374,28.2926489,77.2954004,-nan,-0.0334330,-nan,nan,nan,nan,-nan,nan
1677904374,28.2926489,77.2954004,-nan,-0.0334330,-nan,nan,nan,nan,-nan,nan
1677904374,28.2926489,77.2954004,-nan,-0.0334330,-nan,nan,nan,nan,-nan,nan
1677904374,28.2926489,77.2954004,-nan,-0.0334330,-nan,nan,nan,nan,-nan,nan
1677904374,28.2926489,77.2954004,-nan,-0.0334330,-nan,nan,nan,nan,-nan,nan
1677904375,28.2926489,77.2954004,-nan,-0.0334330,-nan,nan,nan,nan,-nan,nan
1677904375,28.2926416,77.2953955,-nan,-0.0334330,-nan,nan,nan,nan,-nan,nan
1677904375,28.2926416,77.2953955,-nan,0.2956122,-nan,nan,nan,nan,-nan,nan
1677904375,28.2926416,77.2953955,-nan,0.2956122,-nan,nan,nan,nan,-nan,nan
1677904375,28.2926416,77.2953955,-0.3979781,0.2956122,-0.6103232,nan,nan,nan,-nan,nan
1677904375,28.2926416,77.2953955,-0.3979781,0.2956122,-0.6103232,nan,nan,nan,-nan,nan
1677904375,28.2926416,77.2953955,-0.3979781,0.2956122,-0.6103232,nan,nan,nan,-nan,nan
1677904375,28.2926416,77.2953955,-0.3979781,0.2956122,-0.6103232,nan,nan,nan,-nan,nan
1677904375,28.2926416,77.2953955,-0.3979781,0.2956122,-0.6103232,nan,nan,nan,-nan,nan
1677904375,28.2926416,77.2953955,-0.3979781,0.2956122,-0.6103232,nan,nan,nan,-nan,nan
1677904376,28.2926416,77.2953955,-0.3979781,0.2956122,-0.6079745,nan,nan,nan,-nan,nan
1677904376,28.2926367,77.2953955,-0.3979781,0.2956122,-0.6082486,nan,nan,nan,-nan,nan
1677904376,28.2926367,77.2953955,-0.3979781,0.2956122,-0.6082486,nan,nan,nan,-nan,nan
1677904376,28.2926367,77.2953955,-0.3800211,0.0324565,-0.5740182,nan,nan,nan,-nan,nan
1677904376,28.2926367,77.2953955,-nan,0.0324565,-nan,nan,nan,nan,-nan,nan
1677904376,28.2926367,77.2953955,-nan,0.0324565,-nan,nan,nan,nan,-nan,nan
1677904376,28.2926367,77.2953955,-nan,0.0324565,-nan,nan,nan,nan,-nan,nan
1677904376,28.2926367,77.2953955,-nan,0.0324565,-nan,nan,nan,nan,-nan,nan
1677904376,28.2926367,77.2953955,-nan,0.0324565,-nan,nan,nan,nan,-nan,nan
1677904376,28.2926367,77.2953955,-nan,0.0324565,-nan,nan,nan,nan,-nan,nan
1677904377,28.2926367,77.2953955,-nan,0.0324565,-nan,nan,nan,nan,-nan,nan
1677904377,28.2926245,77.2954004,-nan,0.0324565,-nan,nan,nan,nan,-nan,nan
1677904377,28.2926245,77.2954004,-nan,0.4757120,-nan,nan,nan,nan,-nan,nan
1677904377,28.2926245,77.2954004,-0.9438317,0.4757120,-0.6129662,nan,nan,nan,-nan,nan
1677904377,28.2926245,77.2954004,-0.9438317,0.4757120,-0.6129662,nan,nan,nan,-nan,nan
1677904377,28.2926245,77.2954004,-0.9438317,0.4757120,-0.6129662,nan,nan,nan,-nan,nan
1677904377,28.2926245,77.2954004,-0.9438317,0.4757120,-0.6129662,nan,nan,nan,-nan,nan
1677904377,28.2926245,77.2954004,-0.9438317,0.4757120,-0.6129662,nan,nan,nan,-nan,nan
1677904377,28.2926245,77.2954004,-0.9438317,0.4757120,-0.6143326,nan,nan,nan,-nan,nan
1677904377,28.2926245,77.2954004,-0.9438317,0.4757120,-0.6132932,nan,nan,nan,-nan,nan
1677904378,28.2926123,77.2954102,-0.9438317,0.4757120,-0.6132932,nan,nan,nan,-nan,nan
1677904378,28.2926123,77.2954102,-0.9438317,0.4757120,-0.6132932,nan,nan,nan,-nan,nan
1677904378,28.2926123,77.2954102,-0.8052064,0.0546813,-0.5050718,nan,nan,nan,-nan,nan
1677904378,28.2926123,77.2954102,-0.6043786,0.0546813,-0.5490216,nan,nan,nan,-nan,nan
1677904378,28.2926123,77.2954102,-0.6043786,0.0546813,-0.5490216,nan,nan,nan,-nan,nan
1677904378,28.2926123,77.2954102,-0.6043786,0.0546813,-0.5490216,nan,nan,nan,-nan,nan
1677904378,28.2926123,77.2954102,-0.6043786,0.0546813,-0.5490216,nan,nan,nan,-nan,nan
1677904378,28.2926123,77.2954102,-0.6043786,0.0546813,-0.5490216,nan,nan,nan,-nan,nan
1677904378,28.2926123,77.2954102,-0.6043786,0.0546813,-0.5490216,nan,nan,nan,-nan,nan
1677904378,28.2926123,77.2954102,-0.6043786,0.0546813,-0.5490216,nan,nan,nan,-nan,nan
1677904379,28.2926123,77.2954102,-0.6043786,0.0546813,-0.5491153,nan,nan,nan,-nan,nan
1677904379,28.2926123,77.2954102,-0.6043786,0.0546813,-0.5500278,nan,nan,nan,-nan,nan
1677904379,28.2925977,77.2954150,-0.8375241,0.7018098,-0.7968188,nan,nan,nan,-nan,nan
1677904379,28.2925977,77.2954150,-nan,0.7018098,-nan,nan,nan,nan,-nan,nan
1677904379,28.2925977,77.2954150,-nan,0.7018098,-nan,nan,nan,nan,-nan,nan
1677904379,28.2925977,77.2954150,-nan,0.7018098,-nan,nan,nan,nan,-nan,nan
1677904379,28.2925977,77.2954150,-nan,0.7018098,-nan,nan,nan,nan,-nan,nan
1677904379,28.2925977,77.2954150,-nan,0.7018098,-nan,nan,nan,nan,-nan,nan
1677904379,28.2925977,77.2954150,-nan,0.7018098,-nan,nan,nan,nan,-nan,nan
1677904380,28.2925854,77.2954199,-nan,0.7018098,-nan,nan,nan,nan,-nan,nan
1677904380,28.2925854,77.2954199,-nan,0.7018098,-nan,nan,nan,nan,-nan,nan
1677904380,28.2925854,77.2954199,-0.9556461,0.0401473,-0.4554102,nan,nan,nan,-nan,nan
1677904380,28.2925854,77.2954199,-0.9556461,0.0401473,-0.4554102,nan,nan,nan,-nan,nan
1677904380,28.2925854,77.2954199,-0.2189504,0.0401473,-0.5776778,nan,nan,nan,-nan,nan
1677904380,28.2925854,77.2954199,-0.2189504,0.0401473,-0.5776778,nan,nan,nan,-nan,nan
1677904380,28.2925854,77.2954199,-0.2189504,0.0401473,-0.5776778,nan,nan,nan,-nan,nan
1677904380,28.2925854,77.2954199,-0.2189504,0.0401473,-0.5776778,nan,nan,nan,-nan,nan
1677904380,28.2925854,77.2954199,-0.2189504,0.0401473,-0.5776778,nan,nan,nan,-nan,nan
1677904380,28.2925854,77.2954199,-0.2189504,0.0401473,-0.5776778,nan,nan,nan,-nan,nan
1677904381,28.2925854,77.2954199,-0.2189504,0.0401473,-0.5776778,nan,nan,nan,-nan,nan
1677904381,28.2925854,77.2954199,-0.2189504,0.0401473,-0.5804130,nan,nan,nan,-nan,nan
1677904381,28.2925757,77.2954199,-0.2189504,0.0401473,-0.5805060,nan,nan,nan,-nan,nan
1677904381,28.2925757,77.2954199,-0.2197847,0.0953008,-0.5823060,nan,nan,nan,-nan,nan
1677904381,28.2925757,77.2954199,-nan,0.0953008,-nan,nan,nan,nan,-nan,nan
1677904381,28.2925757,77.2954199,-nan,0.0953008,-nan,nan,nan,nan,-nan,nan
1677904381,28.2925757,77.2954199,-nan,0.0953008,-nan,nan,nan,nan,-nan,nan
1677904381,28.2925757,77.2954199,-nan,0.0953008,-nan,nan,nan,nan,-nan,nan
1677904381,28.2925757,77.2954199,-nan,0.0953008,-nan,nan,nan,nan,-nan,nan
1677904381,28.2925757,77.2954199,-nan,0.0953008,-nan,nan,nan,nan,-nan,nan
1677904382,28.2925757,77.2954199,-nan,0.0953008,-nan,nan,nan,nan,-nan,nan
1677904382,28.2925757,77.2954199,-nan,0.0953008,-nan,nan,nan,nan,-nan,nan
1677904382,28.2925635,77.2954150,-nan,0.0953008,-nan,nan,nan,nan,-nan,nan
1677904382,28.2925635,77.2954150,-nan,0.0953008,-nan,nan,nan,nan,-nan,nan
1677904382,28.2925635,77.2954150,-nan,0.0043919,-nan,nan,nan,nan,-nan,nan
1677904382,28.2925635,77.2954150,-0.6395174,0.0043919,-0.5405213,nan,nan,nan,-nan,nan
1677904382,28.2925635,77.2954150,-0.6395174,0.0043919,-0.5405213,nan,nan,nan,-nan,nan
1677904382,28.2925635,77.2954150,-0.6395174,0.0043919,-0.5405213,nan,nan,nan,-nan,nan
1677904382,28.2925635,77.2954150,-0.6395174,0.0043919,-0.5405213,nan,nan,nan,-nan,nan
1677904382,28.2925635,77.2954150,-0.6395174,0.0043919,-0.5405213,nan,nan,nan,-nan,nan
1677904383,28.2925635,77.2954150,-0.6395174,0.0043919,-0.5405213,nan,nan,nan,-nan,nan
1677904383,28.2925635,77.2954150,-0.6395174,0.0043919,-0.5405213,nan,nan,nan,-nan,nan
1677904383,28.2925635,77.2954150,-0.6395174,0.0043919,-0.5393564,nan,nan,nan,-nan,nan
1677904383,28.2925635,77.2954150,-0.6395174,0.0043919,-0.5384930,nan,nan,nan,-nan,nan
1677904383,28.2925562,77.2954102,-0.6395174,0.0043919,-0.5378841,nan,nan,nan,-nan,nan
1677904383,28.2925562,77.2954102,-0.6395667,0.0123219,-0.5388444,nan,nan,nan,-nan,nan
1677904383,28.2925562,77.2954102,-0.6265523,0.0123219,-0.5413474,nan,nan,nan,-nan,nan
1677904383,28.2925562,77.2954102,-0.6265523,0.0123219,-0.5413474,nan,nan,nan,-nan,nan
1677904383,28.2925562,77.2954102,-0.6265523,0.0123219,-0.5413474,nan,nan,nan,-nan,nan
1677904383,28.2925562,77.2954102,-0.6265523,0.0123219,-0.5413474,nan,nan,nan,-nan,nan
1677904384,28.2925562,77.2954102,-0.6265523,0.0123219,-0.5413474,nan,nan,nan,-nan,nan
1677904384,28.2925562,77.2954102,-0.6265523,0.0123219,-0.5413474,nan,nan,nan,-nan,nan
1677904384,28.2925562,77.2954102,-0.6265523,0.0123219,-0.5413474,nan,nan,nan,-nan,nan
1677904384,28.2925562,77.2954102,-0.6265523,0.0123219,-0.5403941,nan,nan,nan,-nan,nan
1677904384,28.2925464,77.2954053,-0.6265523,0.0123219,-0.5411654,nan,nan,nan,-nan,nan
1677904384,28.2925464,77.2954053,-0.7588242,0.5507908,-0.6911896,nan,nan,nan,-nan,nan
1677904384,28.2925464,77.2954053,-0.7588242,0.5507908,-0.6911896,nan,nan,nan,-nan,nan
1677904384,28.2925464,77.2954053,-0.4184151,0.5507908,-0.6840881,nan,nan,nan,-nan,nan
1677904384,28.2925464,77.2954053,-0.4184151,0.5507908,-0.6840881,nan,nan,nan,-nan,nan
1677904384,28.2925464,77.2954053,-0.4184151,0.5507908,-0.6840881,nan,nan,nan,-nan,nan
1677904385,28.2925464,77.2954053,-0.4184151,0.5507908,-0.6840881,nan,nan,nan,-nan,nan
1677904385,28.2925464,77.2954053,-0.4184151,0.5507908,-0.6840881,nan,nan,nan,-nan,nan
1677904385,28.2925464,77.2954053,-0.4184151,0.5507908,-0.6840881,nan,nan,nan,-nan,nan
1677904385,28.2925464,77.2954053,-0.4184151,0.5507908,-0.6824320,nan,nan,nan,-nan,nan
1677904385,28.2925464,77.2954053,-0.4184151,0.5507908,-0.6812211,nan,nan,nan,-nan,nan
1677904385,28.2925391,77.2954004,-0.4184151,0.5507908,-0.6812171,nan,nan,nan,-nan,nan
1677904385,28.2925391,77.2954004,-0.3559788,0.1145603,-0.5791054,nan,nan,nan,-nan,nan
1677904385,28.2925391,77.2954004,-nan,0.1145603,-nan,nan,nan,nan,-nan,nan
1677904385,28.2925391,77.2954004,-nan,0.1145603,-nan,nan,nan,nan,-nan,nan
1677904385,28.2925391,77.2954004,-nan,0.1145603,-nan,nan,nan,nan,-nan,nan
1677904386,28.2925391,77.2954004,-nan,0.1145603,-nan,nan,nan,nan,-nan,nan
1677904386,28.2925391,77.2954004,-nan,0.1145603,-nan,nan,nan,nan,-nan,nan
1677904386,28.2925391,77.2954004,-nan,0.1145603,-nan,nan,nan,nan,-nan,nan
1677904386,28.2925391,77.2954004,-nan,0.1145603,-nan,nan,nan,nan,-nan,nan
1677904386,28.2925391,77.2954004,-nan,0.1145603,-nan,nan,nan,nan,-nan,nan
1677904386,28.2925317,77.2953955,-nan,0.1145603,-nan,nan,nan,nan,-nan,nan
1677904386,28.2925317,77.2953955,-nan,0.1145603,-nan,nan,nan,nan,-nan,nan
1677904386,28.2925317,77.2953955,-nan,0.0292831,-nan,nan,nan,nan,-nan,nan
1677904386,28.2925317,77.2953955,-nan,0.0292831,-nan,nan,nan,nan,-nan,nan
1677904386,28.2925317,77.2953955,-0.5699309,0.0292831,-0.5503992,nan,nan,nan,-nan,nan
1677904387,28.2925317,77.2953955,-0.5699309,0.0292831,-0.5503992,nan,nan,nan,-nan,nan
1677904387,28.2925317,77.2953955,-0.5699309,0.0292831,-0.5503992,nan,nan,nan,-nan,nan
1677904387,28.2925317,77.2953955,-0.5699309,0.0292831,-0.5503992,nan,nan,nan,-nan,nan
1677904387,28.2925317,77.2953955,-0.5699309,0.0292831,-0.5503992,nan,nan,nan,-nan,nan
1677904387,28.2925317,77.2953955,-0.5699309,0.0292831,-0.5517663,nan,nan,nan,-nan,nan
1677904391,28.2924976,77.2953809,-0.4127840,0.0140300,-0.5704382,nan,nan,nan,-nan,nan
1677904391,28.2924976,77.2953809,-0.4127840,0.0140300,-0.5704382,nan,nan,nan,-nan,nan
1677904392,28.2924976,77.2953809,-0.4130605,-0.0381939,-0.5677090,nan,nan,nan,-nan,nan
1677904392,28.2924976,77.2953809,-0.4130605,-0.0381939,-0.5677090,nan,nan,nan,-nan,nan
1677904392,28.2924976,77.2953809,-0.6766341,-0.0381939,-0.5250973,nan,nan,nan,-nan,nan
1677904392,28.2924976,77.2953809,-0.6766341,-0.0381939,-0.5250973,nan,nan,nan,-nan,nan
1677904392,28.2924976,77.2953809,-0.6766341,-0.0381939,-0.5250973,nan,nan,nan,-nan,nan
1677904392,28.2924976,77.2953809,-0.6766341,-0.0381939,-0.5250973,nan,nan,nan,-nan,nan
1677904392,28.2924976,77.2953809,-0.6766341,-0.0381939,-0.5250973,nan,nan,nan,-nan,nan
1677904392,28.2924976,77.2953809,-0.6766341,-0.0381939,-0.5250973,nan,nan,nan,-nan,nan
1677904392,28.2924976,77.2953809,-0.6766341,-0.0381939,-0.5250396,nan,nan,nan,-nan,nan
1677904392,28.2924829,77.2953711,-0.6766341,-0.0381939,-0.5251719,nan,nan,nan,-nan,nan
1677904393,28.2924829,77.2953711,-0.6766341,-0.0381939,-0.5251719,nan,nan,nan,-nan,nan
1677904393,28.2924829,77.2953711,-0.6760752,-0.0081738,-0.5287317,nan,nan,nan,-nan,nan
1677904393,28.2924829,77.2953711,-0.5992272,-0.0081738,-0.5439317,nan,nan,nan,-nan,nan
1677904393,28.2924829,77.2953711,-0.5992272,-0.0081738,-0.5439317,nan,nan,nan,-nan,nan
1677904393,28.2924829,77.2953711,-0.5992272,-0.0081738,-0.5439317,nan,nan,nan,-nan,nan
1677904393,28.2924829,77.2953711,-0.5992272,-0.0081738,-0.5439317,nan,nan,nan,-nan,nan
1677904393,28.2924829,77.2953711,-0.5992272,-0.0081738,-0.5439317,nan,nan,nan,-nan,nan
1677904393,28.2924829,77.2953711,-0.5992272,-0.0081738,-0.5439317,nan,nan,nan,-nan,nan
1677904393,28.2924829,77.2953711,-0.5992272,-0.0081738,-0.5439317,nan,nan,nan,-nan,nan
1677904393,28.2924829,77.2953711,-0.5992272,-0.0081738,-0.5439317,nan,nan,nan,-nan,nan
1677904394,28.2924829,77.2953711,-0.5992272,-0.0081738,-0.5446463,nan,nan,nan,-nan,nan
1677904394,28.2924829,77.2953711,-0.5992272,-0.0081738,-0.5445310,nan,nan,nan,-nan,nan
1677904394,28.2924829,77.2953711,-0.6017250,-0.0857460,-0.5373946,nan,nan,nan,-nan,nan
1677904394,28.2924829,77.2953711,-0.6017250,-0.0857460,-0.5373946,nan,nan,nan,-nan,nan
1677904394,28.2924829,77.2953711,-0.6506927,-0.0857460,-0.5270625,nan,nan,nan,-nan,nan
1677904394,28.2924829,77.2953711,-0.6506927,-0.0857460,-0.5270625,nan,nan,nan,-nan,nan
1677904394,28.2924829,77.2953711,-0.6506927,-0.0857460,-0.5270625,nan,nan,nan,-nan,nan
1677904394,28.2924829,77.2953711,-0.6506927,-0.0857460,-0.5270625,nan,nan,nan,-nan,nan
1677904394,28.2924829,77.2953711,-0.6506927,-0.0857460,-0.5270625,nan,nan,nan,-nan,nan
1677904394,28.2924829,77.2953711,-0.6506927,-0.0857460,-0.5270625,nan,nan,nan,-nan,nan
1677904395,28.2924829,77.2953711,-0.6506927,-0.0857460,-0.5258843,nan,nan,nan,-nan,nan
1677904395,28.2924829,77.2953711,-0.6506927,-0.0857460,-0.5261566,nan,nan,nan,-nan,nan
1677904395,28.2924707,77.2953662,-0.6506927,-0.0857460,-0.5263861,nan,nan,nan,-nan,nan
1677904395,28.2924707,77.2953662,-0.6480029,-0.0165922,-0.5335354,nan,nan,nan,-nan,nan
1677904395,28.2924707,77.2953662,-nan,-0.0165922,-nan,nan,nan,nan,-nan,nan
1677904395,28.2924707,77.2953662,-nan,-0.0165922,-nan,nan,nan,nan,-nan,nan
1677904395,28.2924707,77.2953662,-nan,-0.0165922,-nan,nan,nan,nan,-nan,nan
1677904395,28.2924707,77.2953662,-nan,-0.0165922,-nan,nan,nan,nan,-nan,nan
1677904395,28.2924707,77.2953662,-nan,-0.0165922,-nan,nan,nan,nan,-nan,nan
1677904395,28.2924707,77.2953662,-nan,-0.0165922,-nan,nan,nan,nan,-nan,nan
1677904396,28.2924658,77.2953662,-nan,-0.0165922,-nan,nan,nan,nan,-nan,nan
1677904396,28.2924658,77.2953662,-nan,-0.0908898,-nan,nan,nan,nan,-nan,nan
1677904396,28.2924658,77.2953662,-nan,-0.0908898,-nan,nan,nan,nan,-nan,nan
1677904396,28.2924658,77.2953662,-nan,-0.0908898,-nan,nan,nan,nan,-nan,nan
1677904396,28.2924658,77.2953662,-nan,-0.0908898,-nan,nan,nan,nan,-nan,nan
1677904396,28.2924658,77.2953662,-nan,-0.0908898,-nan,nan,nan,nan,-nan,nan
