time,latitude,longitude,roll,pitch,yaw,filtered_latitude,filtered_longitude,filtered_roll,filtered_pitch,filtered_yaw
1677921055,28.2930737,77.2949707,0.0616288,-0.2347971,-0.3431034,28.2930737,77.2949707,0.0616288,-0.2347971,-0.3431034
1677921055,28.2930737,77.2949707,0.0602265,-0.0982424,-0.3706242,28.2930737,77.2949707,0.0616288,-0.2347971,-0.3431034
1677921055,28.2930737,77.2949707,0.0602265,-0.0982424,-0.3706242,28.2930737,77.2949707,0.0616283,-0.2347952,-0.3431008
1677921055,28.2930737,77.2949707,0.6967667,-0.0982424,-0.6985280,28.2930737,77.2949707,0.0616288,-0.2347971,-0.3431034
1677921055,28.2930737,77.2949707,0.6967667,-0.0982424,-0.6985280,28.2930737,77.2949707,0.0616283,-0.2347952,-0.3431008
1677921055,28.2930737,77.2949707,0.6967667,-0.0982424,-0.6985280,28.2930737,77.2949707,0.0616288,-0.2347971,-0.3431034
1677921055,28.2930737,77.2949707,0.6967667,-0.0982424,-0.6985280,28.2930737,77.2949707,0.0616283,-0.2347952,-0.3431008
1677921056,28.2930737,77.2949707,0.6967667,-0.0982424,-0.6985280,28.2930737,77.2949707,0.0616283,-0.2347952,-0.3431008
1677921056,28.2930737,77.2949707,0.6967667,-0.0982424,-0.6985280,28.2930737,77.2949707,0.0616288,-0.2347971,-0.3431034
1677921056,28.2930737,77.2949707,0.6967667,-0.0982424,-0.7423146,28.2930737,77.2949707,0.0616283,-0.2347952,-0.3431008
1677921056,28.2930835,77.2949707,0.6967667,-0.0982424,-0.7469980,28.2930737,77.2949707,0.0616288,-0.2347971,-0.3431034
1677921056,28.2930835,77.2949707,0.6967667,-0.0982424,-0.7469980,28.2930737,77.2949707,0.0616283,-0.2347952,-0.3431008
1677921056,28.2930835,77.2949707,0.6960725,-0.0894199,-0.7489209,28.2930737,77.2949707,0.0616288,-0.2347971,-0.3431034
1677921056,28.2930835,77.2949707,0.4552881,-0.0894199,-0.6429588,28.2930737,77.2949707,0.0616283,-0.2347952,-0.3431008
1677921056,28.2930835,77.2949707,0.4552881,-0.0894199,-0.6429588,28.2930737,77.2949707,0.0616288,-0.2347971,-0.3431034
1677921056,28.2930835,77.2949707,0.4552881,-0.0894199,-0.6429588,28.2930737,77.2949707,0.0616283,-0.2347952,-0.3431008
1677921057,28.2930835,77.2949707,0.4552881,-0.0894199,-0.6429588,28.2930784,77.2949707,0.0616283,-0.2347952,-0.3431008
1677921057,28.2930835,77.2949707,0.4552881,-0.0894199,-0.6996334,28.2930784,77.2949707,0.0616288,-0.2347971,-0.3431034
1677921057,28.2930835,77.2949707,0.4552881,-0.0894199,-0.6996334,28.2930784,77.2949707,0.0616283,-0.2347952,-0.3431008
1677921057,28.2930908,77.2949707,0.4552881,-0.0894199,-0.6855935,28.2930784,77.2949707,0.0616288,-0.2347971,-0.3431034
1677921057,28.2930908,77.2949707,0.4535670,-0.0309918,-0.7071581,28.2930784,77.2949707,0.0616283,-0.2347952,-0.3431008
1677921057,28.2930908,77.2949707,0.4535670,-0.0309918,-0.7071581,28.2930784,77.2949707,0.0616288,-0.2347971,-0.3431034
1677921057,28.2930908,77.2949707,0.0784392,-0.0309918,-0.4444723,28.2930784,77.2949707,0.0616283,-0.2347952,-0.3431008
1677921057,28.2930908,77.2949707,0.0784392,-0.0309918,-0.4444723,28.2930784,77.2949707,0.0616288,-0.2347971,-0.3431034
1677921057,28.2930908,77.2949707,0.0784392,-0.0309918,-0.4444723,28.2930784,77.2949707,0.0616283,-0.2347952,-0.3431008
1677921057,28.2930908,77.2949707,0.0784392,-0.0309918,-0.4444723,28.2930784,77.2949707,0.0616288,-0.2347971,-0.3431034
1677921058,28.2930908,77.2949707,0.0784392,-0.0309918,-0.4444723,28.2930824,77.2949707,0.0616288,-0.2347971,-0.3431034
1677921058,28.2930908,77.2949707,0.0784392,-0.0309918,-0.4444723,28.2930824,77.2949707,0.0616283,-0.2347952,-0.3431008
1677921058,28.2930908,77.2949707,0.0784392,-0.0309918,-0.4444723,28.2930824,77.2949707,0.0616288,-0.2347971,-0.3431034
1677921058,28.2930908,77.2949707,0.0784392,-0.0309918,-0.4234399,28.2930824,77.2949707,0.0616283,-0.2347952,-0.3431008
1677921058,28.2930981,77.2949707,0.0784392,-0.0309918,-0.4189790,28.2930824,77.2949707,0.0616288,-0.2347971,-0.3431034
1677921058,28.2930981,77.2949707,0.0784392,-0.0309918,-0.4189790,28.2930824,77.2949707,0.0616283,-0.2347952,-0.3431008
1677921058,28.2930981,77.2949707,0.0784016,-0.0020739,-0.4300041,28.2930824,77.2949707,0.0616288,-0.2347971,-0.3431034
1677921058,28.2930981,77.2949707,0.0820733,-0.0020739,-0.4331858,28.2930824,77.2949707,0.0616283,-0.2347952,-0.3431008
1677921058,28.2930981,77.2949707,0.0820733,-0.0020739,-0.4331858,28.2930824,77.2949707,0.0616288,-0.2347971,-0.3431034
1677921058,28.2930981,77.2949707,0.0820733,-0.0020739,-0.4331858,28.2930824,77.2949707,0.0616283,-0.2347952,-0.3431008
1677921059,28.2930981,77.2949707,0.0820733,-0.0020739,-0.4331858,28.2930863,77.2949707,0.0616283,-0.2347952,-0.3431008
1677921059,28.2930981,77.2949707,0.0820733,-0.0020739,-0.4331858,28.2930863,77.2949707,0.0616288,-0.2347971,-0.3431034
1677921059,28.2930981,77.2949707,0.0820733,-0.0020739,-0.4331858,28.2930863,77.2949707,0.0616283,-0.2347952,-0.3431008
1677921059,28.2930981,77.2949707,0.0820733,-0.0020739,-0.4331858,28.2930863,77.2949707,0.0616288,-0.2347971,-0.3431034
1677921059,28.2930981,77.2949707,0.0820733,-0.0020739,-0.4169099,28.2930863,77.2949707,0.0616283,-0.2347952,-0.3431008
1677921059,28.2931055,77.2949707,0.0820733,-0.0020739,-0.4015231,28.2930863,77.2949707,0.0616288,-0.2347971,-0.3431034
1677921059,28.2931055,77.2949707,0.0820733,-0.0020739,-0.4015231,28.2930863,77.2949707,0.0616283,-0.2347952,-0.3431008
1677921059,28.2931055,77.2949707,0.0820826,-0.0151280,-0.3969759,28.2930863,77.2949707,0.0616288,-0.2347971,-0.3431034
1677921059,28.2931055,77.2949707,0.2007085,-0.0151280,-0.4891668,28.2930863,77.2949707,0.0616283,-0.2347952,-0.3431008
1677921059,28.2931055,77.2949707,0.2007085,-0.0151280,-0.4891668,28.2930863,77.2949707,0.0616288,-0.2347971,-0.3431034
1677921060,28.2931055,77.2949707,0.2007085,-0.0151280,-0.4891668,28.2930900,77.2949707,0.0616288,-0.2347971,-0.3431034
1677921060,28.2931055,77.2949707,0.2007085,-0.0151280,-0.4891668,28.2930900,77.2949707,0.0616283,-0.2347952,-0.3431008
1677921060,28.2931055,77.2949707,0.2007085,-0.0151280,-0.4891668,28.2930900,77.2949707,0.0616288,-0.2347971,-0.3431034
1677921060,28.2931055,77.2949707,0.2007085,-0.0151280,-0.4891668,28.2930900,77.2949707,0.0616283,-0.2347952,-0.3431008
1677921060,28.2931055,77.2949707,0.2007085,-0.0151280,-0.4767203,28.2930900,77.2949707,0.0616288,-0.2347971,-0.3431034
1677921060,28.2931128,77.2949707,0.2007085,-0.0151280,-0.4909578,28.2930900,77.2949707,0.0616283,-0.2347952,-0.3431008
1677921060,28.2931128,77.2949707,0.2007085,-0.0151280,-0.4909578,28.2930900,77.2949707,0.0616288,-0.2347971,-0.3431034
1677921060,28.2931128,77.2949707,0.2015468,-0.0918699,-0.4666068,28.2930900,77.2949707,0.0616283,-0.2347952,-0.3431008
1677921060,28.2931128,77.2949707,0.2015468,-0.0918699,-0.4666068,28.2930900,77.2949707,0.0616288,-0.2347971,-0.3431034
1677921060,28.2931128,77.2949707,0.0974288,-0.0918699,-0.3923382,28.2930900,77.2949707,0.0616283,-0.2347952,-0.3431008
1677921061,28.2931128,77.2949707,0.0974288,-0.0918699,-0.3923382,28.2930938,77.2949707,0.0616283,-0.2347952,-0.3431008
1677921061,28.2931128,77.2949707,0.0974288,-0.0918699,-0.3923382,28.2930938,77.2949707,0.0616288,-0.2347971,-0.3431034
1677921061,28.2931128,77.2949707,0.0974288,-0.0918699,-0.3923382,28.2930938,77.2949707,0.0616283,-0.2347952,-0.3431008
1677921061,28.2931128,77.2949707,0.0974288,-0.0918699,-0.3923382,28.2930938,77.2949707,0.0616288,-0.2347971,-0.3431034
1677921061,28.2931128,77.2949707,0.0974288,-0.0918699,-0.3923382,28.2930938,77.2949707,0.0616283,-0.2347952,-0.3431008
1677921061,28.2931128,77.2949707,0.0974288,-0.0918699,-0.3858225,28.2930938,77.2949707,0.0616288,-0.2347971,-0.3431034
1677921061,28.2931177,77.2949756,0.0974288,-0.0918699,-0.3864776,28.2930938,77.2949707,0.0616283,-0.2347952,-0.3431008
1677921061,28.2931177,77.2949756,0.0974288,-0.0918699,-0.3864776,28.2930938,77.2949707,0.0616288,-0.2347971,-0.3431034
1677921061,28.2931177,77.2949756,0.0994857,0.2228972,-0.5243995,28.2930938,77.2949707,0.0616283,-0.2347952,-0.3431008
1677921061,28.2931177,77.2949756,0.0228935,0.2228972,-0.4524913,28.2930938,77.2949707,0.0616288,-0.2347971,-0.3431034
1677921062,28.2931177,77.2949756,0.0228935,0.2228972,-0.4524913,28.2930971,77.2949714,0.0616288,-0.2347971,-0.3431034
1677921062,28.2931177,77.2949756,0.0228935,0.2228972,-0.4524913,28.2930971,77.2949714,0.0616283,-0.2347952,-0.3431008
1677921062,28.2931177,77.2949756,0.0228935,0.2228972,-0.4524913,28.2930971,77.2949714,0.0616288,-0.2347971,-0.3431034
1677921062,28.2931177,77.2949756,0.0228935,0.2228972,-0.4524913,28.2930971,77.2949714,0.0616283,-0.2347952,-0.3431008
1677921062,28.2931177,77.2949756,0.0228935,0.2228972,-0.4524913,28.2930971,77.2949714,0.0616288,-0.2347971,-0.3431034
1677921062,28.2931177,77.2949756,0.0228935,0.2228972,-0.4524913,28.2930971,77.2949714,0.0616283,-0.2347952,-0.3431008
1677921062,28.2931177,77.2949756,0.0228935,0.2228972,-0.5302657,28.2930971,77.2949714,0.0616288,-0.2347971,-0.3431034
1677921062,28.2931250,77.2949756,0.0228935,0.2228972,-0.5419459,28.2930971,77.2949714,0.0616283,-0.2347952,-0.3431008
1677921062,28.2931250,77.2949756,0.0223522,-0.0474741,-0.3986665,28.2930971,77.2949714,0.0616288,-0.2347971,-0.3431034
1677921062,28.2931250,77.2949756,0.2550845,-0.0474741,-0.5775564,28.2930971,77.2949714,0.0616283,-0.2347952,-0.3431008
1677921063,28.2931250,77.2949756,0.2550845,-0.0474741,-0.5775564,28.2931006,77.2949719,0.0616283,-0.2347952,-0.3431008
1677921063,28.2931250,77.2949756,0.2550845,-0.0474741,-0.5775564,28.2931006,77.2949719,0.0616288,-0.2347971,-0.3431034
1677921063,28.2931250,77.2949756,0.2550845,-0.0474741,-0.5775564,28.2931006,77.2949719,0.0616283,-0.2347952,-0.3431008
1677921063,28.2931250,77.2949756,0.2550845,-0.0474741,-0.5775564,28.2931006,77.2949719,0.0616288,-0.2347971,-0.3431034
1677921063,28.2931250,77.2949756,0.2550845,-0.0474741,-0.5726489,28.2931006,77.2949719,0.0616283,-0.2347952,-0.3431008
1677921063,28.2931250,77.2949756,0.2550845,-0.0474741,-0.5763288,28.2931006,77.2949719,0.0616288,-0.2347971,-0.3431034
1677921063,28.2931299,77.2949756,0.2550845,-0.0474741,-0.5767472,28.2931006,77.2949719,0.0616283,-0.2347952,-0.3431008
1677921063,28.2931299,77.2949756,0.2556341,-0.0803596,-0.5647118,28.2931006,77.2949719,0.0616288,-0.2347971,-0.3431034
1677921063,28.2931299,77.2949756,0.2556341,-0.0803596,-0.5647118,28.2931006,77.2949719,0.0616283,-0.2347952,-0.3431008
1677921063,28.2931299,77.2949756,0.0508140,-0.0803596,-0.4125252,28.2931006,77.2949719,0.0616288,-0.2347971,-0.3431034
1677921064,28.2931299,77.2949756,0.0508140,-0.0803596,-0.4125252,28.2931038,77.2949723,0.0616287,-0.2347971,-0.3431034
1677921064,28.2931299,77.2949756,0.0508140,-0.0803596,-0.4125252,28.2931038,77.2949723,0.0616283,-0.2347952,-0.3431008
1677921064,28.2931299,77.2949756,0.0508140,-0.0803596,-0.4125252,28.2931038,77.2949723,0.0616287,-0.2347971,-0.3431034
1677921064,28.2931299,77.2949756,0.0508140,-0.0803596,-0.4125252,28.2931038,77.2949723,0.0616283,-0.2347952,-0.3431008
1677921064,28.2931299,77.2949756,0.0508140,-0.0803596,-0.4125252,28.2931038,77.2949723,0.0616287,-0.2347971,-0.3431034
1677921064,28.2931299,77.2949756,0.0508140,-0.0803596,-0.4125252,28.2931038,77.2949723,0.0616283,-0.2347952,-0.3431008
1677921064,28.2931299,77.2949756,0.0508140,-0.0803596,-0.4099968,28.2931038,77.2949723,0.0616287,-0.2347971,-0.3431034
1677921064,28.2931372,77.2949805,0.0508140,-0.0803596,-0.4100652,28.2931038,77.2949723,0.0616283,-0.2347952,-0.3431008
1677921064,28.2931372,77.2949805,0.0508140,-0.0803596,-0.4100652,28.2931038,77.2949723,0.0616287,-0.2347971,-0.3431034
1677921065,28.2931372,77.2949805,0.0508180,-0.0813387,-0.4097483,28.2931071,77.2949731,0.0616287,-0.2347971,-0.3431034
1677921065,28.2931372,77.2949805,0.3479881,-0.0813387,-0.6172087,28.2931071,77.2949731,0.0616283,-0.2347952,-0.3431008
1677921065,28.2931372,77.2949805,0.3479881,-0.0813387,-0.6172087,28.2931071,77.2949731,0.0616287,-0.2347971,-0.3431034
1677921065,28.2931372,77.2949805,0.3479881,-0.0813387,-0.6172087,28.2931071,77.2949731,0.0616283,-0.2347952,-0.3431008
1677921065,28.2931372,77.2949805,0.3479881,-0.0813387,-0.6172087,28.2931071,77.2949731,0.0616287,-0.2347971,-0.3431034
1677921065,28.2931372,77.2949805,0.3479881,-0.0813387,-0.6064463,28.2931071,77.2949731,0.0616283,-0.2347952,-0.3431008
1677921065,28.2931445,77.2949854,0.3479881,-0.0813387,-0.6466920,28.2931071,77.2949731,0.0616287,-0.2347971,-0.3431034
1677921065,28.2931445,77.2949854,0.3471362,-0.0438104,-0.6601723,28.2931071,77.2949731,0.0616283,-0.2347952,-0.3431008
1677921065,28.2931445,77.2949854,0.3471362,-0.0438104,-0.6601723,28.2931071,77.2949731,0.0616287,-0.2347971,-0.3431034
1677921065,28.2931445,77.2949854,0.1025100,-0.0438104,-0.4990716,28.2931071,77.2949731,0.0616283,-0.2347952,-0.3431008
1677921066,28.2931445,77.2949854,0.1025100,-0.0438104,-0.4990716,28.2931105,77.2949742,0.0616282,-0.2347953,-0.3431008
1677921066,28.2931445,77.2949854,0.1025100,-0.0438104,-0.4990716,28.2931105,77.2949742,0.0616287,-0.2347971,-0.3431034
1677921066,28.2931445,77.2949854,0.1025100,-0.0438104,-0.4990716,28.2931105,77.2949742,0.0616282,-0.2347953,-0.3431008
1677921066,28.2931445,77.2949854,0.1025100,-0.0438104,-0.4990716,28.2931105,77.2949742,0.0616287,-0.2347971,-0.3431034
1677921066,28.2931445,77.2949854,0.1025100,-0.0438104,-0.4990716,28.2931105,77.2949742,0.0616282,-0.2347953,-0.3431008
1677921066,28.2931445,77.2949854,0.1025100,-0.0438104,-0.5602802,28.2931105,77.2949742,0.0616287,-0.2347971,-0.3431034
1677921066,28.2931445,77.2949854,0.1025100,-0.0438104,-0.5409762,28.2931105,77.2949742,0.0616282,-0.2347953,-0.3431008
1677921066,28.2931494,77.2949902,0.1025100,-0.0438104,-0.5416383,28.2931105,77.2949742,0.0616287,-0.2347971,-0.3431034
1677921066,28.2931494,77.2949902,0.1096566,-0.3648800,-0.4383688,28.2931105,77.2949742,0.0616282,-0.2347953,-0.3431008
1677921066,28.2931494,77.2949902,0.1036149,-0.3648800,-0.4335560,28.2931105,77.2949742,0.0616287,-0.2347971,-0.3431034
1677921067,28.2931494,77.2949902,0.1036149,-0.3648800,-0.4335560,28.2931137,77.2949755,0.0616287,-0.2347971,-0.3431034
1677921067,28.2931494,77.2949902,0.1036149,-0.3648800,-0.4335560,28.2931137,77.2949755,0.0616282,-0.2347953,-0.3431008
1677921067,28.2931494,77.2949902,0.1036149,-0.3648800,-0.4335560,28.2931137,77.2949755,0.0616287,-0.2347971,-0.3431034
1677921067,28.2931494,77.2949902,0.1036149,-0.3648800,-0.4335560,28.2931137,77.2949755,0.0616282,-0.2347953,-0.3431008
1677921067,28.2931494,77.2949902,0.1036149,-0.3648800,-0.4335560,28.2931137,77.2949755,0.0616287,-0.2347971,-0.3431034
1677921067,28.2931494,77.2949902,0.1036149,-0.3648800,-0.4335560,28.2931137,77.2949755,0.0616282,-0.2347953,-0.3431008
1677921067,28.2931494,77.2949902,0.1036149,-0.3648800,-0.4646326,28.2931137,77.2949755,0.0616287,-0.2347971,-0.3431034
1677921067,28.2931567,77.2949951,0.1036149,-0.3648800,-0.4888427,28.2931137,77.2949755,0.0616282,-0.2347953,-0.3431008
1677921067,28.2931567,77.2949951,0.1036149,-0.3648800,-0.4888427,28.2931137,77.2949755,0.0616287,-0.2347971,-0.3431034
1677921067,28.2931567,77.2949951,0.0975199,-0.1237754,-0.5611010,28.2931137,77.2949755,0.0616282,-0.2347953,-0.3431008
1677921068,28.2931567,77.2949951,0.0975199,-0.1237754,-0.5611010,28.2931170,77.2949770,0.0616282,-0.2347953,-0.3431008
1677921068,28.2931567,77.2949951,0.0931975,-0.1237754,-0.5576738,28.2931170,77.2949770,0.0616287,-0.2347971,-0.3431033
1677921068,28.2931567,77.2949951,0.0931975,-0.1237754,-0.5576738,28.2931170,77.2949770,0.0616282,-0.2347953,-0.3431008
1677921068,28.2931567,77.2949951,0.0931975,-0.1237754,-0.5576738,28.2931170,77.2949770,0.0616287,-0.2347971,-0.3431033
1677921068,28.2931567,77.2949951,0.0931975,-0.1237754,-0.5576738,28.2931170,77.2949770,0.0616282,-0.2347953,-0.3431008
1677921068,28.2931567,77.2949951,0.0931975,-0.1237754,-0.5576738,28.2931170,77.2949770,0.0616287,-0.2347971,-0.3431033
1677921068,28.2931567,77.2949951,0.0931975,-0.1237754,-0.5576738,28.2931170,77.2949770,0.0616282,-0.2347953,-0.3431008
1677921068,28.2931567,77.2949951,0.0931975,-0.1237754,-0.5276872,28.2931170,77.2949770,0.0616287,-0.2347971,-0.3431033
1677921068,28.2931641,77.2949951,0.0931975,-0.1237754,-0.4928669,28.2931170,77.2949770,0.0616282,-0.2347953,-0.3431008
1677921068,28.2931641,77.2949951,0.0931975,-0.1237754,-0.4928669,28.2931170,77.2949770,0.0616287,-0.2347971,-0.3431033
1677921069,28.2931641,77.2949951,0.0925156,-0.0267202,-0.5284746,28.2931203,77.2949783,0.0616287,-0.2347971,-0.3431033
1677921069,28.2931641,77.2949951,0.0925156,-0.0267202,-0.5284746,28.2931203,77.2949783,0.0616282,-0.2347953,-0.3431007
1677921069,28.2931641,77.2949951,0.0778175,-0.0267202,-0.5174373,28.2931203,77.2949783,0.0616287,-0.2347971,-0.3431033
1677921069,28.2931641,77.2949951,0.0778175,-0.0267202,-0.5174373,28.2931203,77.2949783,0.0616282,-0.2347953,-0.3431007
1677921069,28.2931641,77.2949951,0.0778175,-0.0267202,-0.5174373,28.2931203,77.2949783,0.0616287,-0.2347971,-0.3431033
1677921069,28.2931641,77.2949951,0.0778175,-0.0267202,-0.5174373,28.2931203,77.2949783,0.0616282,-0.2347953,-0.3431007
1677921069,28.2931641,77.2949951,0.0778175,-0.0267202,-0.5174373,28.2931203,77.2949783,0.0616287,-0.2347971,-0.3431033
1677921069,28.2931641,77.2949951,0.0778175,-0.0267202,-0.5054673,28.2931203,77.2949783,0.0616282,-0.2347953,-0.3431007
1677921069,28.2931641,77.2949854,0.0778175,-0.0267202,-0.4368381,28.2931203,77.2949783,0.0616287,-0.2347971,-0.3431033
1677921069,28.2931641,77.2949854,0.0778175,-0.0267202,-0.4368381,28.2931203,77.2949783,0.0616282,-0.2347953,-0.3431007
1677921070,28.2931641,77.2949854,0.0779488,0.0638471,-0.4737639,28.2931232,77.2949788,0.0616282,-0.2347953,-0.3431007
1677921070,28.2931641,77.2949854,0.0779488,0.0638471,-0.4737639,28.2931232,77.2949788,0.0616287,-0.2347971,-0.3431033
1677921070,28.2931641,77.2949854,0.0627527,0.0638471,-0.4610723,28.2931232,77.2949788,0.0616282,-0.2347953,-0.3431007
1677921070,28.2931641,77.2949854,0.0627527,0.0638471,-0.4610723,28.2931232,77.2949788,0.0616287,-0.2347971,-0.3431033
1677921070,28.2931641,77.2949854,0.0627527,0.0638471,-0.4610723,28.2931232,77.2949788,0.0616282,-0.2347953,-0.3431007
1677921070,28.2931641,77.2949854,0.0627527,0.0638471,-0.4610723,28.2931232,77.2949788,0.0616287,-0.2347971,-0.3431033
1677921070,28.2931641,77.2949854,0.0627527,0.0638471,-0.4610723,28.2931232,77.2949788,0.0616282,-0.2347953,-0.3431007
1677921070,28.2931641,77.2949854,0.0627527,0.0638471,-0.4610723,28.2931232,77.2949788,0.0616287,-0.2347971,-0.3431033
1677921070,28.2931641,77.2949854,0.0627527,0.0638471,-0.4392540,28.2931232,77.2949788,0.0616282,-0.2347953,-0.3431007
1677921070,28.2931689,77.2949805,0.0627527,0.0638471,-0.4446237,28.2931232,77.2949788,0.0616287,-0.2347971,-0.3431033
1677921071,28.2931689,77.2949805,0.0627527,0.0638471,-0.4446237,28.2931261,77.2949789,0.0616287,-0.2347971,-0.3431032
1677921071,28.2931689,77.2949805,0.0626313,-0.0145180,-0.4158933,28.2931261,77.2949789,0.0616282,-0.2347953,-0.3431006
1677921071,28.2931689,77.2949805,0.0626313,-0.0145180,-0.4158933,28.2931261,77.2949789,0.0616287,-0.2347971,-0.3431032
1677921071,28.2931689,77.2949805,0.0855101,-0.0145180,-0.4330454,28.2931261,77.2949789,0.0616282,-0.2347953,-0.3431006
1677921071,28.2931689,77.2949805,0.0855101,-0.0145180,-0.4330454,28.2931261,77.2949789,0.0616287,-0.2347971,-0.3431032
1677921071,28.2931689,77.2949805,0.0855101,-0.0145180,-0.4330454,28.2931261,77.2949789,0.0616282,-0.2347953,-0.3431006
1677921071,28.2931689,77.2949805,0.0855101,-0.0145180,-0.4330454,28.2931261,77.2949789,0.0616287,-0.2347971,-0.3431032
1677921071,28.2931689,77.2949805,0.0855101,-0.0145180,-0.4330454,28.2931261,77.2949789,0.0616282,-0.2347953,-0.3431006
1677921071,28.2931689,77.2949805,0.0855101,-0.0145180,-0.4285864,28.2931261,77.2949789,0.0616287,-0.2347971,-0.3431032
1677921071,28.2931689,77.2949805,0.0855101,-0.0145180,-0.4158964,28.2931261,77.2949789,0.0616282,-0.2347953,-0.3431006
1677921072,28.2931787,77.2949756,0.0855101,-0.0145180,-0.4158964,28.2931292,77.2949787,0.0616282,-0.2347953,-0.3431006
1677921072,28.2931787,77.2949756,0.0868455,-0.1759705,-0.3748377,28.2931292,77.2949787,0.0616287,-0.2347971,-0.3431032
1677921072,28.2931787,77.2949756,0.1050201,-0.1759705,-0.3874213,28.2931292,77.2949787,0.0616282,-0.2347953,-0.3431006
1677921072,28.2931787,77.2949756,0.1050201,-0.1759705,-0.3874213,28.2931292,77.2949787,0.0616287,-0.2347971,-0.3431032
1677921072,28.2931787,77.2949756,0.1050201,-0.1759705,-0.3874213,28.2931292,77.2949787,0.0616282,-0.2347953,-0.3431006
1677921072,28.2931787,77.2949756,0.1050201,-0.1759705,-0.3874213,28.2931292,77.2949787,0.0616287,-0.2347971,-0.3431032
1677921072,28.2931787,77.2949756,0.1050201,-0.1759705,-0.3874213,28.2931292,77.2949787,0.0616282,-0.2347953,-0.3431006
1677921072,28.2931787,77.2949756,0.1050201,-0.1759705,-0.3874213,28.2931292,77.2949787,0.0616287,-0.2347971,-0.3431032
1677921072,28.2931787,77.2949756,0.1050201,-0.1759705,-0.3874213,28.2931292,77.2949787,0.0616282,-0.2347953,-0.3431006
1677921073,28.2931787,77.2949756,0.1050201,-0.1759705,-0.4022610,28.2931319,77.2949785,0.0616282,-0.2347953,-0.3431006
1677921073,28.2931787,77.2949756,0.1050201,-0.1759705,-0.3720100,28.2931319,77.2949785,0.0616286,-0.2347971,-0.3431032
1677921073,28.2931787,77.2949756,0.1050201,-0.1759705,-0.3707874,28.2931319,77.2949785,0.0616282,-0.2347953,-0.3431006
1677921073,28.2931787,77.2949756,0.1180328,-0.5023844,-0.3364373,28.2931319,77.2949785,0.0616286,-0.2347971,-0.3431032
1677921073,28.2931787,77.2949756,0.1243429,-0.5023844,-0.3405624,28.2931319,77.2949785,0.0616282,-0.2347953,-0.3431006
1677921073,28.2931787,77.2949756,0.1243429,-0.5023844,-0.3405624,28.2931319,77.2949785,0.0616286,-0.2347971,-0.3431032
1677921073,28.2931787,77.2949756,0.1243429,-0.5023844,-0.3405624,28.2931319,77.2949785,0.0616282,-0.2347953,-0.3431006
1677921073,28.2931787,77.2949756,0.1243429,-0.5023844,-0.3405624,28.2931319,77.2949785,0.0616286,-0.2347971,-0.3431032
1677921073,28.2931787,77.2949756,0.1243429,-0.5023844,-0.3405624,28.2931319,77.2949785,0.0616282,-0.2347953,-0.3431006
1677921073,28.2931787,77.2949756,0.1243429,-0.5023844,-0.3405624,28.2931319,77.2949785,0.0616286,-0.2347971,-0.3431032
1677921074,28.2931787,77.2949756,0.1243429,-0.5023844,-0.3405624,28.2931343,77.2949784,0.0616286,-0.2347971,-0.3431032
1677921074,28.2931787,77.2949756,0.1243429,-0.5023844,-0.3399034,28.2931343,77.2949784,0.0616282,-0.2347953,-0.3431006
1677921075,28.2931934,77.2949658,0.1049802,-0.2603417,-0.3043728,28.2931373,77.2949778,0.0616281,-0.2347953,-0.3431005
1677921075,28.2931934,77.2949658,0.1049802,-0.2603417,-0.3043728,28.2931373,77.2949778,0.0616286,-0.2347971,-0.3431031
1677921075,28.2931934,77.2949658,0.1016309,-0.0627469,-0.3250894,28.2931373,77.2949778,0.0616281,-0.2347953,-0.3431005
1677921075,28.2931934,77.2949658,0.1444965,-0.0627469,-0.3466769,28.2931373,77.2949778,0.0616286,-0.2347971,-0.3431031
1677921075,28.2931934,77.2949658,0.1444965,-0.0627469,-0.3466769,28.2931373,77.2949778,0.0616281,-0.2347953,-0.3431005
1677921075,28.2931934,77.2949658,0.1444965,-0.0627469,-0.3466769,28.2931373,77.2949778,0.0616286,-0.2347971,-0.3431031
1677921075,28.2931934,77.2949658,0.1444965,-0.0627469,-0.3466769,28.2931373,77.2949778,0.0616281,-0.2347953,-0.3431005
1677921076,28.2931934,77.2949658,0.1444965,-0.0627469,-0.3466769,28.2931399,77.2949772,0.0616281,-0.2347952,-0.3431005
1677921076,28.2931934,77.2949658,0.1444965,-0.0627469,-0.3466769,28.2931399,77.2949772,0.0616286,-0.2347971,-0.3431031
1677921076,28.2931934,77.2949658,0.1444965,-0.0627469,-0.3466769,28.2931399,77.2949772,0.0616281,-0.2347952,-0.3431005
1677921076,28.2931934,77.2949658,0.1444965,-0.0627469,-0.3095343,28.2931399,77.2949772,0.0616286,-0.2347971,-0.3431031
1677921076,28.2931934,77.2949658,0.1444965,-0.0627469,-0.3305196,28.2931399,77.2949772,0.0616281,-0.2347952,-0.3431005
1677921076,28.2931982,77.2949609,0.1444965,-0.0627469,-0.3394633,28.2931399,77.2949772,0.0616286,-0.2347971,-0.3431031
1677921076,28.2931982,77.2949609,0.1497221,-0.2712151,-0.3180807,28.2931399,77.2949772,0.0616281,-0.2347952,-0.3431005
1677921076,28.2931982,77.2949609,0.1912263,-0.2712151,-0.3382794,28.2931399,77.2949772,0.0616286,-0.2347971,-0.3431031
1677921076,28.2931982,77.2949609,0.1912263,-0.2712151,-0.3382794,28.2931399,77.2949772,0.0616281,-0.2347952,-0.3431005
1677921076,28.2931982,77.2949609,0.1912263,-0.2712151,-0.3382794,28.2931399,77.2949772,0.0616286,-0.2347971,-0.3431031
1677921077,28.2931982,77.2949609,0.1912263,-0.2712151,-0.3382794,28.2931426,77.2949765,0.0616286,-0.2347971,-0.3431031
1677921077,28.2931982,77.2949609,0.1912263,-0.2712151,-0.3382794,28.2931426,77.2949765,0.0616281,-0.2347952,-0.3431004
1677921077,28.2931982,77.2949609,0.1912263,-0.2712151,-0.3382794,28.2931426,77.2949765,0.0616286,-0.2347971,-0.3431031
1677921077,28.2931982,77.2949609,0.1912263,-0.2712151,-0.3382794,28.2931426,77.2949765,0.0616281,-0.2347952,-0.3431004
1677921077,28.2931982,77.2949609,0.1912263,-0.2712151,-0.3232616,28.2931426,77.2949765,0.0616286,-0.2347971,-0.3431031
1677921077,28.2932056,77.2949609,0.1912263,-0.2712151,-0.3466625,28.2931426,77.2949765,0.0616281,-0.2347952,-0.3431004
1677921077,28.2932056,77.2949609,0.1846606,-0.0736299,-0.3668289,28.2931426,77.2949765,0.0616286,-0.2347971,-0.3431031
1677921077,28.2932056,77.2949609,0.1846606,-0.0736299,-0.3668289,28.2931426,77.2949765,0.0616281,-0.2347952,-0.3431004
1677921077,28.2932056,77.2949609,0.0689247,-0.0736299,-0.3072018,28.2931426,77.2949765,0.0616286,-0.2347971,-0.3431031
1677921077,28.2932056,77.2949609,0.0689247,-0.0736299,-0.3072018,28.2931426,77.2949765,0.0616281,-0.2347952,-0.3431004
1677921078,28.2932056,77.2949609,0.0689247,-0.0736299,-0.3072018,28.2931453,77.2949758,0.0616281,-0.2347952,-0.3431004
1677921078,28.2932056,77.2949609,0.0689247,-0.0736299,-0.3072018,28.2931453,77.2949758,0.0616286,-0.2347971,-0.3431030
1677921078,28.2932056,77.2949609,0.0689247,-0.0736299,-0.3072018,28.2931453,77.2949758,0.0616281,-0.2347952,-0.3431004
1677921078,28.2932056,77.2949609,0.0689247,-0.0736299,-0.3072018,28.2931453,77.2949758,0.0616286,-0.2347971,-0.3431030
1677921078,28.2932056,77.2949609,0.0689247,-0.0736299,-0.3065735,28.2931453,77.2949758,0.0616281,-0.2347952,-0.3431004
1677921078,28.2932056,77.2949609,0.0689247,-0.0736299,-0.3085571,28.2931453,77.2949758,0.0616286,-0.2347971,-0.3431030
1677921078,28.2932104,77.2949609,0.0689247,-0.0736299,-0.3118722,28.2931453,77.2949758,0.0616281,-0.2347952,-0.3431004
1677921078,28.2932104,77.2949609,0.0690847,-0.1002040,-0.3075415,28.2931453,77.2949758,0.0616286,-0.2347971,-0.3431030
1677921078,28.2932104,77.2949609,0.1227964,-0.1002040,-0.3392445,28.2931453,77.2949758,0.0616281,-0.2347952,-0.3431004
1677921078,28.2932104,77.2949609,0.1227964,-0.1002040,-0.3392445,28.2931453,77.2949758,0.0616286,-0.2347971,-0.3431030
1677921079,28.2932104,77.2949609,0.1227964,-0.1002040,-0.3392445,28.2931480,77.2949752,0.0616285,-0.2347971,-0.3431029
1677921079,28.2932104,77.2949609,0.1227964,-0.1002040,-0.3392445,28.2931480,77.2949752,0.0616281,-0.2347952,-0.3431002
1677921079,28.2932104,77.2949609,0.1227964,-0.1002040,-0.3433064,28.2931480,77.2949752,0.0616285,-0.2347971,-0.3431029
1677921079,28.2932153,77.2949561,0.1227964,-0.1002040,-0.3994453,28.2931480,77.2949752,0.0616281,-0.2347952,-0.3431002
1677921079,28.2932153,77.2949561,0.1227964,-0.1002040,-0.3994453,28.2931480,77.2949752,0.0616285,-0.2347971,-0.3431029
1677921079,28.2932153,77.2949561,0.1233975,-0.1403897,-0.3917932,28.2931480,77.2949752,0.0616281,-0.2347952,-0.3431002
1677921079,28.2932153,77.2949561,0.0121979,-0.1403897,-0.3227376,28.2931480,77.2949752,0.0616285,-0.2347971,-0.3431029
1677921079,28.2932153,77.2949561,0.0121979,-0.1403897,-0.3227376,28.2931480,77.2949752,0.0616281,-0.2347952,-0.3431002
1677921079,28.2932153,77.2949561,0.0121979,-0.1403897,-0.3227376,28.2931480,77.2949752,0.0616285,-0.2347971,-0.3431029
1677921079,28.2932153,77.2949561,0.0121979,-0.1403897,-0.3227376,28.2931480,77.2949752,0.0616281,-0.2347952,-0.3431002
1677921080,28.2932153,77.2949561,0.0121979,-0.1403897,-0.3227376,28.2931507,77.2949744,0.0616280,-0.2347952,-0.3431002
1677921080,28.2932153,77.2949561,0.0121979,-0.1403897,-0.3227376,28.2931507,77.2949744,0.0616285,-0.2347970,-0.3431028
1677921080,28.2932153,77.2949561,0.0121979,-0.1403897,-0.3227376,28.2931507,77.2949744,0.0616280,-0.2347952,-0.3431002
1677921080,28.2932153,77.2949561,0.0121979,-0.1403897,-0.3323986,28.2931507,77.2949744,0.0616285,-0.2347970,-0.3431028
1677921080,28.2932227,77.2949561,0.0121979,-0.1403897,-0.3048074,28.2931507,77.2949744,0.0616280,-0.2347952,-0.3431002
1677921080,28.2932227,77.2949561,0.0121979,-0.1403897,-0.3048074,28.2931507,77.2949744,0.0616285,-0.2347970,-0.3431028
1677921080,28.2932227,77.2949561,0.0120984,-0.0582248,-0.3205907,28.2931507,77.2949744,0.0616280,-0.2347952,-0.3431002
1677921080,28.2932227,77.2949561,0.3673609,-0.0582248,-0.5307584,28.2931507,77.2949744,0.0616285,-0.2347970,-0.3431028
1677921080,28.2932227,77.2949561,0.3673609,-0.0582248,-0.5307584,28.2931507,77.2949744,0.0616280,-0.2347952,-0.3431002
1677921080,28.2932227,77.2949561,0.3673609,-0.0582248,-0.5307584,28.2931507,77.2949744,0.0616285,-0.2347970,-0.3431028
1677921081,28.2932227,77.2949561,0.3673609,-0.0582248,-0.5307584,28.2931535,77.2949737,0.0616285,-0.2347970,-0.3431027
1677921081,28.2932227,77.2949561,0.3673609,-0.0582248,-0.5307584,28.2931535,77.2949737,0.0616285,-0.2347970,-0.3431027
1677921081,28.2932227,77.2949561,0.3673609,-0.0582248,-0.5307584,28.2931535,77.2949737,0.0616285,-0.2347970,-0.3431027
1677921081,28.2932227,77.2949561,0.3673609,-0.0582248,-0.5307584,28.2931535,77.2949737,0.0616285,-0.2347970,-0.3431027
1677921081,28.2932227,77.2949561,0.3673609,-0.0582248,-0.5281425,28.2931535,77.2949737,0.0616285,-0.2347970,-0.3431027
1677921081,28.2932275,77.2949512,0.3673609,-0.0582248,-0.5362124,28.2931535,77.2949737,0.0616285,-0.2347970,-0.3431027
1677921081,28.2932275,77.2949512,0.3673609,-0.0582248,-0.5362124,28.2931535,77.2949737,0.0616285,-0.2347970,-0.3431027
1677921081,28.2932275,77.2949512,0.3669716,-0.0369731,-0.5419187,28.2931535,77.2949737,0.0616285,-0.2347970,-0.3431027
1677921081,28.2932275,77.2949512,0.0621783,-0.0369731,-0.3521775,28.2931535,77.2949737,0.0616285,-0.2347970,-0.3431027
1677921082,28.2932275,77.2949512,0.0621783,-0.0369731,-0.3521775,28.2931562,77.2949729,0.0616284,-0.2347970,-0.3431026
1677921082,28.2932275,77.2949512,0.0621783,-0.0369731,-0.3521775,28.2931562,77.2949729,0.0616284,-0.2347970,-0.3431026
1677921082,28.2932275,77.2949512,0.0621783,-0.0369731,-0.3521775,28.2931562,77.2949729,0.0616284,-0.2347970,-0.3431026
1677921082,28.2932275,77.2949512,0.0621783,-0.0369731,-0.3521775,28.2931562,77.2949729,0.0616284,-0.2347970,-0.3431026
1677921082,28.2932275,77.2949512,0.0621783,-0.0369731,-0.3521775,28.2931562,77.2949729,0.0616284,-0.2347970,-0.3431026
1677921082,28.2932275,77.2949512,0.0621783,-0.0369731,-0.3521775,28.2931562,77.2949729,0.0616284,-0.2347970,-0.3431026
1677921082,28.2932275,77.2949512,0.0621783,-0.0369731,-0.3643508,28.2931562,77.2949729,0.0616284,-0.2347970,-0.3431026
1677921082,28.2932324,77.2949512,0.0621783,-0.0369731,-0.3631162,28.2931562,77.2949729,0.0616284,-0.2347970,-0.3431026
1677921082,28.2932324,77.2949512,0.0621968,-0.0442989,-0.3612455,28.2931562,77.2949729,0.0616284,-0.2347970,-0.3431026
1677921082,28.2932324,77.2949512,0.0621968,-0.0442989,-0.3612455,28.2931562,77.2949729,0.0616284,-0.2347970,-0.3431026
1677921083,28.2932324,77.2949512,0.0299227,-0.0442989,-0.3377292,28.2931589,77.2949721,0.0616284,-0.2347970,-0.3431025
1677921083,28.2932324,77.2949512,0.0299227,-0.0442989,-0.3377292,28.2931589,77.2949721,0.0616284,-0.2347970,-0.3431025
1677921083,28.2932324,77.2949512,0.0299227,-0.0442989,-0.3377292,28.2931589,77.2949721,0.0616284,-0.2347970,-0.3431025
1677921083,28.2932324,77.2949512,0.0299227,-0.0442989,-0.3377292,28.2931589,77.2949721,0.0616284,-0.2347970,-0.3431025
1677921083,28.2932324,77.2949512,0.0299227,-0.0442989,-0.3377292,28.2931589,77.2949721,0.0616284,-0.2347970,-0.3431025
1677921083,28.2932324,77.2949512,0.0299227,-0.0442989,-0.3377292,28.2931589,77.2949721,0.0616284,-0.2347970,-0.3431025
1677921083,28.2932324,77.2949512,0.0299227,-0.0442989,-0.3224796,28.2931589,77.2949721,0.0616284,-0.2347970,-0.3431025
1677921083,28.2932397,77.2949512,0.0299227,-0.0442989,-0.3225132,28.2931589,77.2949721,0.0616284,-0.2347970,-0.3431025
1677921083,28.2932397,77.2949512,0.0303049,-0.1649531,-0.2981122,28.2931589,77.2949721,0.0616284,-0.2347970,-0.3431025
1677921083,28.2932397,77.2949512,0.0303049,-0.1649531,-0.2981122,28.2931589,77.2949721,0.0616284,-0.2347970,-0.3431025
1677921084,28.2932397,77.2949512,0.4342611,-0.1649531,-0.5434148,28.2931617,77.2949714,0.0616284,-0.2347969,-0.3431025
1677921084,28.2932397,77.2949512,0.4342611,-0.1649531,-0.5434148,28.2931617,77.2949714,0.0616284,-0.2347969,-0.3431025
1677921084,28.2932397,77.2949512,0.4342611,-0.1649531,-0.5434148,28.2931617,77.2949714,0.0616284,-0.2347969,-0.3431025
1677921084,28.2932397,77.2949512,0.4342611,-0.1649531,-0.5434148,28.2931617,77.2949714,0.0616284,-0.2347969,-0.3431025
1677921084,28.2932397,77.2949512,0.4342611,-0.1649531,-0.5434148,28.2931617,77.2949714,0.0616284,-0.2347969,-0.3431025
1677921084,28.2932397,77.2949512,0.4342611,-0.1649531,-0.5434148,28.2931617,77.2949714,0.0616284,-0.2347969,-0.3431025
1677921084,28.2932397,77.2949512,0.4342611,-0.1649531,-0.5393557,28.2931617,77.2949714,0.0616284,-0.2347969,-0.3431025
1677921084,28.2932471,77.2949463,0.4342611,-0.1649531,-0.5348871,28.2931617,77.2949714,0.0616284,-0.2347969,-0.3431025
1677921084,28.2932471,77.2949463,0.4562020,-0.3419936,-0.5203142,28.2931617,77.2949714,0.0616284,-0.2347969,-0.3431025
1677921084,28.2932471,77.2949463,0.4562020,-0.3419936,-0.5203142,28.2931617,77.2949714,0.0616284,-0.2347969,-0.3431025
1677921085,28.2932471,77.2949463,0.0905110,-0.3419936,-0.3103191,28.2931645,77.2949705,0.0616283,-0.2347970,-0.3431024
1677921085,28.2932471,77.2949463,0.0905110,-0.3419936,-0.3103191,28.2931645,77.2949705,0.0616278,-0.2347951,-0.3430997
1677921085,28.2932471,77.2949463,0.0905110,-0.3419936,-0.3103191,28.2931645,77.2949705,0.0616283,-0.2347970,-0.3431024
1677921085,28.2932471,77.2949463,0.0905110,-0.3419936,-0.3103191,28.2931645,77.2949705,0.0616278,-0.2347951,-0.3430997
1677921085,28.2932471,77.2949463,0.0905110,-0.3419936,-0.3103191,28.2931645,77.2949705,0.0616283,-0.2347970,-0.3431024
1677921085,28.2932471,77.2949463,0.0905110,-0.3419936,-0.3103191,28.2931645,77.2949705,0.0616278,-0.2347951,-0.3430997
1677921085,28.2932471,77.2949463,0.0905110,-0.3419936,-0.3114631,28.2931645,77.2949705,0.0616283,-0.2347970,-0.3431024
1677921085,28.2932544,77.2949463,0.0905110,-0.3419936,-0.3018431,28.2931645,77.2949705,0.0616278,-0.2347951,-0.3430997
1677921085,28.2932544,77.2949463,0.0905110,-0.3419936,-0.3018431,28.2931645,77.2949705,0.0616283,-0.2347970,-0.3431024
1677921085,28.2932544,77.2949463,0.0856308,-0.0934627,-0.3375522,28.2931645,77.2949705,0.0616278,-0.2347951,-0.3430997
1677921086,28.2932544,77.2949463,0.0611808,-0.0934627,-0.3200387,28.2931674,77.2949698,0.0616278,-0.2347951,-0.3430996
1677921086,28.2932544,77.2949463,0.0611808,-0.0934627,-0.3200387,28.2931674,77.2949698,0.0616283,-0.2347969,-0.3431022
1677921086,28.2932544,77.2949463,0.0611808,-0.0934627,-0.3200387,28.2931674,77.2949698,0.0616278,-0.2347951,-0.3430996
1677921086,28.2932544,77.2949463,0.0611808,-0.0934627,-0.3200387,28.2931674,77.2949698,0.0616283,-0.2347969,-0.3431022
1677921086,28.2932544,77.2949463,0.0611808,-0.0934627,-0.3200387,28.2931674,77.2949698,0.0616278,-0.2347951,-0.3430996
1677921086,28.2932544,77.2949463,0.0611808,-0.0934627,-0.3200387,28.2931674,77.2949698,0.0616283,-0.2347969,-0.3431022
1677921086,28.2932544,77.2949463,0.0611808,-0.0934627,-0.3200387,28.2931674,77.2949698,0.0616278,-0.2347951,-0.3430996
1677921086,28.2932544,77.2949463,0.0611808,-0.0934627,-0.3228847,28.2931674,77.2949698,0.0616283,-0.2347969,-0.3431022
1677921086,28.2932690,77.2949463,0.0611808,-0.0934627,-0.3164747,28.2931674,77.2949698,0.0611808,-0.0934627,-0.3164747
1677921086,28.2932690,77.2949463,0.0647654,-0.3463999,-0.2806337,28.2931674,77.2949698,0.0647654,-0.3463999,-0.2806337
1677921087,28.2932690,77.2949463,0.2391033,-0.3463999,-0.3922689,28.2931674,77.2949698,0.2391033,-0.3463999,-0.3922689
1677921087,28.2932690,77.2949463,0.2391033,-0.3463999,-0.3922689,28.2931674,77.2949698,0.2391033,-0.3463999,-0.3922689
1677921087,28.2932690,77.2949463,0.2391033,-0.3463999,-0.3922689,28.2931674,77.2949698,0.2391033,-0.3463999,-0.3922689
1677921087,28.2932690,77.2949463,0.2391033,-0.3463999,-0.3922689,28.2931674,77.2949698,0.2391033,-0.3463999,-0.3922689
1677921087,28.2932690,77.2949463,0.2391033,-0.3463999,-0.3922689,28.2931674,77.2949698,0.2391033,-0.3463999,-0.3922689
1677921087,28.2932690,77.2949463,0.2391033,-0.3463999,-0.3922689,28.2931674,77.2949698,0.2391033,-0.3463999,-0.3922689
1677921087,28.2932690,77.2949463,0.2391033,-0.3463999,-0.3922689,28.2931674,77.2949698,0.2391033,-0.3463999,-0.3922689
1677921087,28.2932690,77.2949463,0.2391033,-0.3463999,-0.3873661,28.2931674,77.2949698,0.2391033,-0.3463999,-0.3873661
1677921087,28.2932690,77.2949463,0.2391033,-0.3463999,-0.4025530,28.2931674,77.2949698,0.2391033,-0.3463999,-0.4025530
1677921087,28.2932690,77.2949463,0.2391033,-0.3463999,-0.4025530,28.2931674,77.2949698,0.2391033,-0.3463999,-0.4025530
1677921088,28.2932690,77.2949463,0.2295650,-0.2055429,-0.4170283,28.2931674,77.2949698,0.2295650,-0.2055429,-0.4170283
1677921088,28.2932690,77.2949463,0.1952701,-0.2055429,-0.3963881,28.2931674,77.2949698,0.1952701,-0.2055429,-0.3963881
1677921088,28.2932690,77.2949463,0.1952701,-0.2055429,-0.3963881,28.2931674,77.2949698,0.1952701,-0.2055429,-0.3963881
1677921088,28.2932690,77.2949463,0.1952701,-0.2055429,-0.3963881,28.2931674,77.2949698,0.1952701,-0.2055429,-0.3963881
1677921088,28.2932690,77.2949463,0.1952701,-0.2055429,-0.3963881,28.2931674,77.2949698,0.1952701,-0.2055429,-0.3963881
1677921088,28.2932690,77.2949463,0.1952701,-0.2055429,-0.3963881,28.2931674,77.2949698,0.1952701,-0.2055429,-0.3963881
1677921088,28.2932690,77.2949463,0.1952701,-0.2055429,-0.3963881,28.2931674,77.2949698,0.1952701,-0.2055429,-0.3963881
1677921088,28.2932690,77.2949463,0.1952701,-0.2055429,-0.4485802,28.2931674,77.2949698,0.1952701,-0.2055429,-0.4485802
1677921088,28.2932739,77.2949463,0.1952701,-0.2055429,-0.4500795,28.2931707,77.2949690,0.0616282,-0.2347969,-0.3431021
1677921088,28.2932739,77.2949463,0.1952701,-0.2055429,-0.4500795,28.2931707,77.2949690,0.0616277,-0.2347951,-0.3430995
1677921089,28.2932739,77.2949463,0.1912799,-0.0421009,-0.4909225,28.2931739,77.2949683,0.0616281,-0.2347969,-0.3431019
1677921089,28.2932739,77.2949463,0.1747641,-0.0421009,-0.4801009,28.2931739,77.2949683,0.0616281,-0.2347969,-0.3431019
1677921089,28.2932739,77.2949463,0.1747641,-0.0421009,-0.4801009,28.2931739,77.2949683,0.0616281,-0.2347969,-0.3431019
1677921089,28.2932739,77.2949463,0.1747641,-0.0421009,-0.4801009,28.2931739,77.2949683,0.0616281,-0.2347969,-0.3431019
1677921089,28.2932739,77.2949463,0.1747641,-0.0421009,-0.4801009,28.2931739,77.2949683,0.0616281,-0.2347969,-0.3431019
1677921089,28.2932739,77.2949463,0.1747641,-0.0421009,-0.4801009,28.2931739,77.2949683,0.0616281,-0.2347969,-0.3431019
1677921089,28.2932739,77.2949463,0.1747641,-0.0421009,-0.4624589,28.2931739,77.2949683,0.0616281,-0.2347969,-0.3431019
1677921089,28.2932861,77.2949414,0.1747641,-0.0421009,-0.4599425,28.2931739,77.2949683,0.1747641,-0.0421009,-0.4599425
1677921089,28.2932861,77.2949414,0.1780863,-0.1969518,-0.4241106,28.2931739,77.2949683,0.1780863,-0.1969518,-0.4241106
1677921090,28.2932861,77.2949414,0.1536162,-0.1969518,-0.4086285,28.2931739,77.2949683,0.1536162,-0.1969518,-0.4086285
1677921090,28.2932861,77.2949414,0.1536162,-0.1969518,-0.4086285,28.2931739,77.2949683,0.1536162,-0.1969518,-0.4086285
1677921090,28.2932861,77.2949414,0.1536162,-0.1969518,-0.4086285,28.2931739,77.2949683,0.1536162,-0.1969518,-0.4086285
1677921090,28.2932861,77.2949414,0.1536162,-0.1969518,-0.4086285,28.2931739,77.2949683,0.1536162,-0.1969518,-0.4086285
1677921090,28.2932861,77.2949414,0.1536162,-0.1969518,-0.4086285,28.2931739,77.2949683,0.1536162,-0.1969518,-0.4086285
1677921090,28.2932861,77.2949414,0.1536162,-0.1969518,-0.4086285,28.2931739,77.2949683,0.1536162,-0.1969518,-0.4086285
1677921090,28.2932861,77.2949414,0.1536162,-0.1969518,-0.4276472,28.2931739,77.2949683,0.1536162,-0.1969518,-0.4276472
1677921090,28.2932861,77.2949414,0.1536162,-0.1969518,-0.4693493,28.2931739,77.2949683,0.1536162,-0.1969518,-0.4693493
1677921090,28.2932861,77.2949414,0.1536162,-0.1969518,-0.4704108,28.2931739,77.2949683,0.1536162,-0.1969518,-0.4704108
1677921090,28.2932861,77.2949414,0.1596728,-0.3369478,-0.4466188,28.2931739,77.2949683,0.1596728,-0.3369478,-0.4466188
1677921091,28.2932861,77.2949414,0.0565186,-0.3369478,-0.3772699,28.2931739,77.2949683,0.0565186,-0.3369478,-0.3772699
1677921091,28.2932861,77.2949414,0.0565186,-0.3369478,-0.3772699,28.2931739,77.2949683,0.0565186,-0.3369478,-0.3772699
1677921091,28.2932861,77.2949414,0.0565186,-0.3369478,-0.3772699,28.2931739,77.2949683,0.0565186,-0.3369478,-0.3772699
1677921091,28.2932861,77.2949414,0.0565186,-0.3369478,-0.3772699,28.2931739,77.2949683,0.0565186,-0.3369478,-0.3772699
1677921091,28.2932861,77.2949414,0.0565186,-0.3369478,-0.3772699,28.2931739,77.2949683,0.0565186,-0.3369478,-0.3772699
1677921091,28.2932861,77.2949414,0.0565186,-0.3369478,-0.3772699,28.2931739,77.2949683,0.0565186,-0.3369478,-0.3772699
1677921091,28.2932861,77.2949414,0.0565186,-0.3369478,-0.3772699,28.2931739,77.2949683,0.0565186,-0.3369478,-0.3772699
1677921091,28.2932861,77.2949414,0.0565186,-0.3369478,-0.3739922,28.2931739,77.2949683,0.0565186,-0.3369478,-0.3739922
1677921091,28.2932935,77.2949414,0.0565186,-0.3369478,-0.3728454,28.2931774,77.2949676,0.0616281,-0.2347968,-0.3431017
1677921091,28.2932935,77.2949414,0.0565186,-0.3369478,-0.3728454,28.2931774,77.2949676,0.0616281,-0.2347968,-0.3431017
1677921092,28.2932935,77.2949414,0.0539630,-0.1523512,-0.4100363,28.2931807,77.2949668,0.0616280,-0.2347968,-0.3431016
1677921092,28.2932935,77.2949414,0.1202590,-0.1523512,-0.4588470,28.2931807,77.2949668,0.0616280,-0.2347968,-0.3431016
1677921092,28.2932935,77.2949414,0.1202590,-0.1523512,-0.4588470,28.2931807,77.2949668,0.0616280,-0.2347968,-0.3431016
1677921092,28.2932935,77.2949414,0.1202590,-0.1523512,-0.4588470,28.2931807,77.2949668,0.0616280,-0.2347968,-0.3431016
1677921092,28.2932935,77.2949414,0.1202590,-0.1523512,-0.4588470,28.2931807,77.2949668,0.0616280,-0.2347968,-0.3431016
1677921092,28.2932935,77.2949414,0.1202590,-0.1523512,-0.4588470,28.2931807,77.2949668,0.0616280,-0.2347968,-0.3431016
1677921092,28.2932935,77.2949414,0.1202590,-0.1523512,-0.4588470,28.2931807,77.2949668,0.0616280,-0.2347968,-0.3431016
1677921092,28.2932935,77.2949414,0.1202590,-0.1523512,-0.4588470,28.2931807,77.2949668,0.0616280,-0.2347968,-0.3431016
1677921092,28.2932935,77.2949414,0.1202590,-0.1523512,-0.4529367,28.2931807,77.2949668,0.0616280,-0.2347968,-0.3431016
1677921092,28.2933008,77.2949365,0.1202590,-0.1523512,-0.4864381,28.2931807,77.2949668,0.0616280,-0.2347968,-0.3431016
1677921093,28.2933008,77.2949365,0.1202590,-0.1523512,-0.4864381,28.2931840,77.2949660,0.0616279,-0.2347967,-0.3431013
1677921093,28.2933008,77.2949365,0.1191806,-0.0732629,-0.5101694,28.2931840,77.2949660,0.0616279,-0.2347967,-0.3431013
1677921093,28.2933008,77.2949365,0.1191806,-0.0732629,-0.5101694,28.2931840,77.2949660,0.0616279,-0.2347967,-0.3431013
1677921093,28.2933008,77.2949365,0.1511555,-0.0732629,-0.5314841,28.2931840,77.2949660,0.0616279,-0.2347967,-0.3431013
1677921093,28.2933008,77.2949365,0.1511555,-0.0732629,-0.5314841,28.2931840,77.2949660,0.0616279,-0.2347967,-0.3431013
1677921093,28.2933008,77.2949365,0.1511555,-0.0732629,-0.5314841,28.2931840,77.2949660,0.0616279,-0.2347967,-0.3431013
1677921093,28.2933008,77.2949365,0.1511555,-0.0732629,-0.5314841,28.2931840,77.2949660,0.0616279,-0.2347967,-0.3431013
1677921093,28.2933008,77.2949365,0.1511555,-0.0732629,-0.5314841,28.2931840,77.2949660,0.0616279,-0.2347967,-0.3431013
1677921093,28.2933008,77.2949365,0.1511555,-0.0732629,-0.5481895,28.2931840,77.2949660,0.0616279,-0.2347967,-0.3431013
1677921093,28.2933008,77.2949365,0.1511555,-0.0732629,-0.5911507,28.2931840,77.2949660,0.0616279,-0.2347967,-0.3431013
1677921094,28.2933081,77.2949365,0.1511555,-0.0732629,-0.5899805,28.2931873,77.2949652,0.0616279,-0.2347967,-0.3431012
1677921094,28.2933081,77.2949365,0.1525979,-0.1553141,-0.5636230,28.2931873,77.2949652,0.0616274,-0.2347949,-0.3430986
1677921094,28.2933081,77.2949365,0.1525979,-0.1553141,-0.5636230,28.2931873,77.2949652,0.0616279,-0.2347967,-0.3431012
1677921094,28.2933081,77.2949365,0.1163353,-0.1553141,-0.5404881,28.2931873,77.2949652,0.0616274,-0.2347949,-0.3430986
1677921094,28.2933081,77.2949365,0.1163353,-0.1553141,-0.5404881,28.2931873,77.2949652,0.0616279,-0.2347967,-0.3431012
1677921094,28.2933081,77.2949365,0.1163353,-0.1553141,-0.5404881,28.2931873,77.2949652,0.0616274,-0.2347949,-0.3430986
1677921094,28.2933081,77.2949365,0.1163353,-0.1553141,-0.5404881,28.2931873,77.2949652,0.0616279,-0.2347967,-0.3431012
1677921094,28.2933081,77.2949365,0.1163353,-0.1553141,-0.5404881,28.2931873,77.2949652,0.0616274,-0.2347949,-0.3430986
1677921094,28.2933081,77.2949365,0.1163353,-0.1553141,-0.5404881,28.2931873,77.2949652,0.0616279,-0.2347967,-0.3431012
1677921094,28.2933081,77.2949365,0.1163353,-0.1553141,-0.5567968,28.2931873,77.2949652,0.0616274,-0.2347949,-0.3430986
1677921095,28.2933081,77.2949365,0.1163353,-0.1553141,-0.5874760,28.2931905,77.2949644,0.0616273,-0.2347948,-0.3430984
1677921095,28.2933154,77.2949365,0.1163353,-0.1553141,-0.5870349,28.2931905,77.2949644,0.0616278,-0.2347967,-0.3431010
1677921095,28.2933154,77.2949365,0.1218540,-0.3379821,-0.5452843,28.2931905,77.2949644,0.0616273,-0.2347948,-0.3430984
1677921095,28.2933154,77.2949365,0.1653660,-0.3379821,-0.5720904,28.2931905,77.2949644,0.0616278,-0.2347967,-0.3431010
1677921095,28.2933154,77.2949365,0.1653660,-0.3379821,-0.5720904,28.2931905,77.2949644,0.0616273,-0.2347948,-0.3430984
1677921095,28.2933154,77.2949365,0.1653660,-0.3379821,-0.5720904,28.2931905,77.2949644,0.0616278,-0.2347967,-0.3431010
1677921095,28.2933154,77.2949365,0.1653660,-0.3379821,-0.5720904,28.2931905,77.2949644,0.0616273,-0.2347948,-0.3430984
1677921095,28.2933154,77.2949365,0.1653660,-0.3379821,-0.5720904,28.2931905,77.2949644,0.0616278,-0.2347967,-0.3431010
1677921095,28.2933154,77.2949365,0.1653660,-0.3379821,-0.5720904,28.2931905,77.2949644,0.0616273,-0.2347948,-0.3430984
1677921095,28.2933154,77.2949365,0.1653660,-0.3379821,-0.5595288,28.2931905,77.2949644,0.0616278,-0.2347967,-0.3431010
1677921096,28.2933203,77.2949316,0.1653660,-0.3379821,-0.5445865,28.2931938,77.2949636,0.0616277,-0.2347966,-0.3431008
1677921096,28.2933203,77.2949316,0.1653660,-0.3379821,-0.5445865,28.2931938,77.2949636,0.0616272,-0.2347948,-0.3430982
1677921096,28.2933203,77.2949316,0.1568371,-0.1070726,-0.5981077,28.2931938,77.2949636,0.0616277,-0.2347966,-0.3431008
1677921096,28.2933203,77.2949316,0.4289841,-0.1070726,-0.7318025,28.2931938,77.2949636,0.0616272,-0.2347948,-0.3430982
1677921096,28.2933203,77.2949316,0.4289841,-0.1070726,-0.7318025,28.2931938,77.2949636,0.0616277,-0.2347966,-0.3431008
1677921096,28.2933203,77.2949316,0.4289841,-0.1070726,-0.7318025,28.2931938,77.2949636,0.0616272,-0.2347948,-0.3430982
1677921096,28.2933203,77.2949316,0.4289841,-0.1070726,-0.7318025,28.2931938,77.2949636,0.0616277,-0.2347966,-0.3431008
1677921096,28.2933203,77.2949316,0.4289841,-0.1070726,-0.7318025,28.2931938,77.2949636,0.0616272,-0.2347948,-0.3430982
1677921096,28.2933203,77.2949316,0.4289841,-0.1070726,-0.7359517,28.2931938,77.2949636,0.0616277,-0.2347966,-0.3431008
1677921096,28.2933203,77.2949316,0.4289841,-0.1070726,-0.7504294,28.2931938,77.2949636,0.0616272,-0.2347948,-0.3430982
1677921097,28.2933276,77.2949268,0.4289841,-0.1070726,-0.7504294,28.2931972,77.2949627,0.0616276,-0.2347966,-0.3431005
1677921097,28.2933276,77.2949268,0.4266790,-0.0370952,-0.7691966,28.2931972,77.2949627,0.0616276,-0.2347966,-0.3431005
1677921097,28.2933276,77.2949268,0.4266790,-0.0370952,-0.7691966,28.2931972,77.2949627,0.0616276,-0.2347966,-0.3431005
1677921097,28.2933276,77.2949268,0.0923011,-0.0370952,-0.6075833,28.2931972,77.2949627,0.0616276,-0.2347966,-0.3431005
1677921097,28.2933276,77.2949268,0.0923011,-0.0370952,-0.6075833,28.2931972,77.2949627,0.0616276,-0.2347966,-0.3431005
1677921097,28.2933276,77.2949268,0.0923011,-0.0370952,-0.6075833,28.2931972,77.2949627,0.0616276,-0.2347966,-0.3431005
1677921097,28.2933276,77.2949268,0.0923011,-0.0370952,-0.6075833,28.2931972,77.2949627,0.0616276,-0.2347966,-0.3431005
1677921097,28.2933276,77.2949268,0.0923011,-0.0370952,-0.6075833,28.2931972,77.2949627,0.0616276,-0.2347966,-0.3431005
1677921097,28.2933276,77.2949268,0.0923011,-0.0370952,-0.6075833,28.2931972,77.2949627,0.0616276,-0.2347966,-0.3431005
1677921098,28.2933276,77.2949268,0.0923011,-0.0370952,-0.6075833,28.2932003,77.2949618,0.0616276,-0.2347965,-0.3431003
1677921098,28.2933276,77.2949268,0.0923011,-0.0370952,-0.6736062,28.2932003,77.2949618,0.0616276,-0.2347965,-0.3431003
1677921098,28.2933398,77.2949219,0.0923011,-0.0370952,-0.6738393,28.2932003,77.2949618,0.0616276,-0.2347965,-0.3431003
1677921098,28.2933398,77.2949219,0.0923011,-0.0370952,-0.6738393,28.2932003,77.2949618,0.0616276,-0.2347965,-0.3431003
1677921098,28.2933398,77.2949219,0.1957743,-0.0258660,-0.7358558,28.2932003,77.2949618,0.0616276,-0.2347965,-0.3431003
1677921098,28.2933398,77.2949219,0.1957743,-0.0258660,-0.7358558,28.2932003,77.2949618,0.0616276,-0.2347965,-0.3431003
1677921098,28.2933398,77.2949219,0.1957743,-0.0258660,-0.7358558,28.2932003,77.2949618,0.0616276,-0.2347965,-0.3431003
1677921098,28.2933398,77.2949219,0.1957743,-0.0258660,-0.7358558,28.2932003,77.2949618,0.0616276,-0.2347965,-0.3431003
1677921098,28.2933398,77.2949219,0.1957743,-0.0258660,-0.7358558,28.2932003,77.2949618,0.0616276,-0.2347965,-0.3431003
1677921098,28.2933398,77.2949219,0.1957743,-0.0258660,-0.7358558,28.2932003,77.2949618,0.0616276,-0.2347965,-0.3431003
1677921099,28.2933398,77.2949219,0.1957743,-0.0258660,-0.7358558,28.2932037,77.2949608,0.0616275,-0.2347965,-0.3431001
1677921099,28.2933398,77.2949219,0.1957743,-0.0258660,-0.7530424,28.2932037,77.2949608,0.0616270,-0.2347947,-0.3430974
1677921099,28.2933398,77.2949219,0.1957743,-0.0258660,-0.7865421,28.2932037,77.2949608,0.0616275,-0.2347965,-0.3431001
1677921099,28.2933398,77.2949219,0.1974912,-0.1336164,-0.7451109,28.2932037,77.2949608,0.0616270,-0.2347947,-0.3430974
1677921099,28.2933398,77.2949219,0.1974912,-0.1336164,-0.7451109,28.2932037,77.2949608,0.0616275,-0.2347965,-0.3431001
1677921099,28.2933398,77.2949219,0.0904735,-0.1336164,-0.6860290,28.2932037,77.2949608,0.0616270,-0.2347947,-0.3430974
1677921099,28.2933398,77.2949219,0.0904735,-0.1336164,-0.6860290,28.2932037,77.2949608,0.0616275,-0.2347965,-0.3431001
1677921099,28.2933398,77.2949219,0.0904735,-0.1336164,-0.6860290,28.2932037,77.2949608,0.0616270,-0.2347947,-0.3430974
1677921099,28.2933398,77.2949219,0.0904735,-0.1336164,-0.6860290,28.2932037,77.2949608,0.0616275,-0.2347965,-0.3431001
1677921099,28.2933398,77.2949219,0.0904735,-0.1336164,-0.6860290,28.2932037,77.2949608,0.0616270,-0.2347947,-0.3430974
1677921100,28.2933398,77.2949219,0.0904735,-0.1336164,-0.6860290,28.2932068,77.2949599,0.0616269,-0.2347946,-0.3430972
1677921100,28.2933398,77.2949219,0.0904735,-0.1336164,-0.6916991,28.2932068,77.2949599,0.0616274,-0.2347964,-0.3430997
1677921100,28.2933447,77.2949170,0.0904735,-0.1336164,-0.6828296,28.2932068,77.2949599,0.0616269,-0.2347946,-0.3430972
1677921100,28.2933447,77.2949170,0.0904735,-0.1336164,-0.6828296,28.2932068,77.2949599,0.0616274,-0.2347964,-0.3430997
1677921100,28.2933447,77.2949170,0.0898650,-0.0666590,-0.7107095,28.2932068,77.2949599,0.0616269,-0.2347946,-0.3430972
1677921100,28.2933447,77.2949170,0.0898650,-0.0666590,-0.7107095,28.2932068,77.2949599,0.0616274,-0.2347964,-0.3430997
1677921100,28.2933447,77.2949170,0.0966190,-0.0666590,-0.7146852,28.2932068,77.2949599,0.0616269,-0.2347946,-0.3430972
1677921100,28.2933447,77.2949170,0.0966190,-0.0666590,-0.7146852,28.2932068,77.2949599,0.0616274,-0.2347964,-0.3430997
1677921100,28.2933447,77.2949170,0.0966190,-0.0666590,-0.7146852,28.2932068,77.2949599,0.0616269,-0.2347946,-0.3430972
1677921100,28.2933447,77.2949170,0.0966190,-0.0666590,-0.7146852,28.2932068,77.2949599,0.0616274,-0.2347964,-0.3430997
1677921101,28.2933447,77.2949170,0.0966190,-0.0666590,-0.7146852,28.2932099,77.2949590,0.0616273,-0.2347964,-0.3430994
1677921101,28.2933447,77.2949170,0.0966190,-0.0666590,-0.7146852,28.2932099,77.2949590,0.0616268,-0.2347945,-0.3430968
1677921101,28.2933447,77.2949170,0.0966190,-0.0666590,-0.6893966,28.2932099,77.2949590,0.0616273,-0.2347964,-0.3430994
1677921101,28.2933545,77.2949072,0.0966190,-0.0666590,-0.6621541,28.2932099,77.2949590,0.0616268,-0.2347945,-0.3430968
1677921101,28.2933545,77.2949072,0.0966190,-0.0666590,-0.6621541,28.2932099,77.2949590,0.0616273,-0.2347964,-0.3430994
1677921101,28.2933545,77.2949072,0.0972816,-0.1342319,-0.6365650,28.2932099,77.2949590,0.0616268,-0.2347945,-0.3430968
1677921101,28.2933545,77.2949072,0.2382356,-0.1342319,-0.7144773,28.2932099,77.2949590,0.0616273,-0.2347964,-0.3430994
1677921101,28.2933545,77.2949072,0.2382356,-0.1342319,-0.7144773,28.2932099,77.2949590,0.0616268,-0.2347945,-0.3430968
1677921101,28.2933545,77.2949072,0.2382356,-0.1342319,-0.7144773,28.2932099,77.2949590,0.0616273,-0.2347964,-0.3430994
1677921101,28.2933545,77.2949072,0.2382356,-0.1342319,-0.7144773,28.2932099,77.2949590,0.0616268,-0.2347945,-0.3430968
1677921102,28.2933545,77.2949072,0.2382356,-0.1342319,-0.7144773,28.2932132,77.2949578,0.0616271,-0.2347963,-0.3430991
1677921102,28.2933545,77.2949072,0.2382356,-0.1342319,-0.7076682,28.2932132,77.2949578,0.0616271,-0.2347963,-0.3430991
1677921102,28.2933545,77.2949072,0.2382356,-0.1342319,-0.7082606,28.2932132,77.2949578,0.0616271,-0.2347963,-0.3430991
1677921102,28.2933545,77.2949072,0.2382356,-0.1342319,-0.7082606,28.2932132,77.2949578,0.0616271,-0.2347963,-0.3430991
1677921102,28.2933545,77.2949072,0.2368788,-0.0828076,-0.7243561,28.2932132,77.2949578,0.0616271,-0.2347963,-0.3430991
1677921102,28.2933545,77.2949072,0.0450640,-0.0828076,-0.6184638,28.2932132,77.2949578,0.0616271,-0.2347963,-0.3430991
1677921102,28.2933545,77.2949072,0.0450640,-0.0828076,-0.6184638,28.2932132,77.2949578,0.0616271,-0.2347963,-0.3430991
1677921102,28.2933545,77.2949072,0.0450640,-0.0828076,-0.6184638,28.2932132,77.2949578,0.0616271,-0.2347963,-0.3430991
1677921102,28.2933545,77.2949072,0.0450640,-0.0828076,-0.6184638,28.2932132,77.2949578,0.0616271,-0.2347963,-0.3430991
1677921102,28.2933545,77.2949072,0.0450640,-0.0828076,-0.6184638,28.2932132,77.2949578,0.0616271,-0.2347963,-0.3430991
1677921103,28.2933545,77.2949072,0.0450640,-0.0828076,-0.6184638,28.2932162,77.2949567,0.0616265,-0.2347944,-0.3430962
1677921103,28.2933545,77.2949072,0.0450640,-0.0828076,-0.6184638,28.2932162,77.2949567,0.0616270,-0.2347963,-0.3430988
1677921103,28.2933545,77.2949072,0.0450640,-0.0828076,-0.6203240,28.2932162,77.2949567,0.0616265,-0.2347944,-0.3430962
1677921104,28.2933716,77.2948926,0.0411064,-0.1302937,-0.6444572,28.2932195,77.2949554,0.0616264,-0.2347944,-0.3430959
1677921104,28.2933716,77.2948926,0.0411064,-0.1302937,-0.6444572,28.2932195,77.2949554,0.0616269,-0.2347962,-0.3430985
1677921104,28.2933716,77.2948926,0.0408256,-0.0576138,-0.6739202,28.2932195,77.2949554,0.0616264,-0.2347944,-0.3430959
1677921104,28.2933716,77.2948926,0.2340639,-0.0576138,-0.7743659,28.2932195,77.2949554,0.0616269,-0.2347962,-0.3430985
1677921104,28.2933716,77.2948926,0.2340639,-0.0576138,-0.7743659,28.2932195,77.2949554,0.0616264,-0.2347944,-0.3430959
1677921104,28.2933716,77.2948926,0.2340639,-0.0576138,-0.7743659,28.2932195,77.2949554,0.0616269,-0.2347962,-0.3430985
1677921105,28.2933716,77.2948926,0.2340639,-0.0576138,-0.7743659,28.2932227,77.2949541,0.0616268,-0.2347961,-0.3430982
1677921105,28.2933716,77.2948926,0.2340639,-0.0576138,-0.7743659,28.2932227,77.2949541,0.0616263,-0.2347943,-0.3430955
1677921105,28.2933716,77.2948926,0.2340639,-0.0576138,-0.7743659,28.2932227,77.2949541,0.0616268,-0.2347961,-0.3430982
1677921105,28.2933716,77.2948926,0.2340639,-0.0576138,-0.7743659,28.2932227,77.2949541,0.0616263,-0.2347943,-0.3430955
1677921105,28.2933716,77.2948926,0.2340639,-0.0576138,-0.7699690,28.2932227,77.2949541,0.0616268,-0.2347961,-0.3430982
1677921105,28.2933765,77.2948877,0.2340639,-0.0576138,-0.7661623,28.2932227,77.2949541,0.0616263,-0.2347943,-0.3430955
1677921105,28.2933765,77.2948877,0.2339285,-0.0467413,-0.7698863,28.2932227,77.2949541,0.0616268,-0.2347961,-0.3430982
1677921105,28.2933765,77.2948877,0.2339285,-0.0467413,-0.7698863,28.2932227,77.2949541,0.0616263,-0.2347943,-0.3430955
1677921105,28.2933765,77.2948877,0.0470370,-0.0467413,-0.6789645,28.2932227,77.2949541,0.0616268,-0.2347961,-0.3430982
1677921105,28.2933765,77.2948877,0.0470370,-0.0467413,-0.6789645,28.2932227,77.2949541,0.0616263,-0.2347943,-0.3430955
1677921106,28.2933765,77.2948877,0.0470370,-0.0467413,-0.6789645,28.2932258,77.2949527,0.0616262,-0.2347943,-0.3430952
1677921106,28.2933765,77.2948877,0.0470370,-0.0467413,-0.6789645,28.2932258,77.2949527,0.0616267,-0.2347961,-0.3430978
1677921106,28.2933765,77.2948877,0.0470370,-0.0467413,-0.6789645,28.2932258,77.2949527,0.0616262,-0.2347943,-0.3430952
1677921106,28.2933765,77.2948877,0.0470370,-0.0467413,-0.6789645,28.2932258,77.2949527,0.0616267,-0.2347961,-0.3430978
1677921106,28.2933765,77.2948877,0.0470370,-0.0467413,-0.6789645,28.2932258,77.2949527,0.0616262,-0.2347943,-0.3430952
1677921106,28.2933765,77.2948877,0.0470370,-0.0467413,-0.6981848,28.2932258,77.2949527,0.0616267,-0.2347961,-0.3430978
1677921107,28.2933862,77.2948779,0.0400668,-0.0903998,-0.5955830,28.2932290,77.2949512,0.0616265,-0.2347960,-0.3430974
1677921107,28.2933862,77.2948779,0.0401689,-0.1150515,-0.5862220,28.2932290,77.2949512,0.0616260,-0.2347941,-0.3430946
1677921108,28.2933862,77.2948779,0.0892768,-0.1150515,-0.6180664,28.2932321,77.2949498,0.0616259,-0.2347940,-0.3430943
1677921108,28.2933862,77.2948779,0.0892768,-0.1150515,-0.6180664,28.2932321,77.2949498,0.0616263,-0.2347959,-0.3430969
1677921108,28.2933862,77.2948779,0.0892768,-0.1150515,-0.6180664,28.2932321,77.2949498,0.0616259,-0.2347940,-0.3430943
1677921108,28.2933862,77.2948779,0.0892768,-0.1150515,-0.6180664,28.2932321,77.2949498,0.0616263,-0.2347959,-0.3430969
1677921108,28.2933862,77.2948779,0.0892768,-0.1150515,-0.6180664,28.2932321,77.2949498,0.0616259,-0.2347940,-0.3430943
1677921108,28.2933862,77.2948779,0.0892768,-0.1150515,-0.6180664,28.2932321,77.2949498,0.0616263,-0.2347959,-0.3430969
1677921108,28.2933862,77.2948779,0.0892768,-0.1150515,-0.6180664,28.2932321,77.2949498,0.0616259,-0.2347940,-0.3430943
1677921108,28.2933862,77.2948779,0.0892768,-0.1150515,-0.6104809,28.2932321,77.2949498,0.0616263,-0.2347959,-0.3430969
1677921108,28.2933936,77.2948779,0.0892768,-0.1150515,-0.6050084,28.2932321,77.2949498,0.0616259,-0.2347940,-0.3430943
1677921108,28.2933936,77.2948779,0.0892768,-0.1150515,-0.6050084,28.2932321,77.2949498,0.0616263,-0.2347959,-0.3430969
1677921109,28.2933936,77.2948779,0.0945713,-0.3541929,-0.5444489,28.2932352,77.2949484,0.0616262,-0.2347958,-0.3430965
1677921109,28.2933936,77.2948779,0.4605572,-0.3541929,-0.7432541,28.2932352,77.2949484,0.0616257,-0.2347939,-0.3430939
1677921109,28.2933936,77.2948779,0.4605572,-0.3541929,-0.7432541,28.2932352,77.2949484,0.0616262,-0.2347958,-0.3430965
1677921109,28.2933936,77.2948779,0.4605572,-0.3541929,-0.7432541,28.2932352,77.2949484,0.0616257,-0.2347939,-0.3430939
1677921109,28.2933936,77.2948779,0.4605572,-0.3541929,-0.7432541,28.2932352,77.2949484,0.0616262,-0.2347958,-0.3430965
1677921109,28.2933936,77.2948779,0.4605572,-0.3541929,-0.7432541,28.2932352,77.2949484,0.0616257,-0.2347939,-0.3430939
