time,latitude,longitude,roll,pitch,yaw,filtered_latitude,filtered_longitude,filtered_roll,filtered_pitch,filtered_yaw
1677921720,28.2921680,77.2945410,0.0526442,-0.1417451,0.4315145,28.2921680,77.2945410,0.0526442,-0.1417451,0.4315145
1677921720,28.2921680,77.2945410,0.0526442,-0.1417451,0.4315145,28.2921680,77.2945410,0.0526438,-0.1417440,0.4315113
1677921721,28.2921680,77.2945410,0.0522410,-0.0692268,0.5188150,28.2921680,77.2945410,0.0526438,-0.1417440,0.4315113
1677921721,28.2921680,77.2945410,0.0522410,-0.0692268,0.5188150,28.2921680,77.2945410,0.0526442,-0.1417451,0.4315145
1677921721,28.2921680,77.2945410,0.0771182,-0.0692268,0.4528335,28.2921680,77.2945410,0.0526438,-0.1417440,0.4315113
1677921721,28.2921680,77.2945410,0.0771182,-0.0692268,0.4528335,28.2921680,77.2945410,0.0526442,-0.1417451,0.4315145
1677921721,28.2921680,77.2945410,0.0771182,-0.0692268,0.4528335,28.2921680,77.2945410,0.0526438,-0.1417440,0.4315113
1677921721,28.2921680,77.2945410,0.0771182,-0.0692268,0.4528335,28.2921680,77.2945410,0.0526442,-0.1417451,0.4315145
1677921721,28.2921680,77.2945410,0.0771182,-0.0692268,0.4528335,28.2921680,77.2945410,0.0526438,-0.1417440,0.4315113
1677921721,28.2921680,77.2945410,0.0771182,-0.0692268,0.4528335,28.2921680,77.2945410,0.0526442,-0.1417451,0.4315145
1677921721,28.2921680,77.2945410,0.0771182,-0.0692268,0.4528335,28.2921680,77.2945410,0.0526438,-0.1417440,0.4315113
1677921721,28.2921680,77.2945410,0.0771182,-0.0692268,-2.3753641,28.2921680,77.2945410,0.0526442,-0.1417451,0.4315145
1677921722,28.2921655,77.2945459,0.0771182,-0.0692268,-2.3995724,28.2921668,77.2945434,0.0526442,-0.1417451,0.4315145
1677921722,28.2921655,77.2945459,0.0770596,-0.0572472,-2.4720719,28.2921668,77.2945434,0.0526438,-0.1417440,0.4315113
1677921722,28.2921655,77.2945459,0.0770596,-0.0572472,-2.4720719,28.2921668,77.2945434,0.0526442,-0.1417451,0.4315145
1677921722,28.2921655,77.2945459,0.0706880,-0.0572472,-2.5176673,28.2921668,77.2945434,0.0526438,-0.1417440,0.4315113
1677921722,28.2921655,77.2945459,0.0706880,-0.0572472,-2.5176673,28.2921668,77.2945434,0.0526442,-0.1417451,0.4315145
1677921722,28.2921655,77.2945459,0.0706880,-0.0572472,-2.5176673,28.2921668,77.2945434,0.0526438,-0.1417440,0.4315113
1677921722,28.2921655,77.2945459,0.0706880,-0.0572472,-2.5176673,28.2921668,77.2945434,0.0526442,-0.1417451,0.4315145
1677921722,28.2921655,77.2945459,0.0706880,-0.0572472,-2.5176673,28.2921668,77.2945434,0.0526438,-0.1417440,0.4315113
1677921722,28.2921655,77.2945459,0.0706880,-0.0572472,-2.0910554,28.2921668,77.2945434,0.0526442,-0.1417451,0.4315145
1677921722,28.2921655,77.2945459,0.0706880,-0.0572472,1.8528442,28.2921668,77.2945434,0.0526438,-0.1417440,0.4315113
1677921723,28.2921606,77.2945508,0.0706880,-0.0572472,1.8761863,28.2921648,77.2945458,0.0526438,-0.1417440,0.4315113
1677921723,28.2921606,77.2945508,0.0712957,-0.1424845,1.2844753,28.2921648,77.2945458,0.0526442,-0.1417451,0.4315145
1677921723,28.2921606,77.2945508,0.0712957,-0.1424845,1.2844753,28.2921648,77.2945458,0.0526438,-0.1417440,0.4315113
1677921723,28.2921606,77.2945508,-0.0432723,-0.1424845,1.4217998,28.2921648,77.2945458,0.0526442,-0.1417451,0.4315145
1677921723,28.2921606,77.2945508,-0.0432723,-0.1424845,1.4217998,28.2921648,77.2945458,0.0526438,-0.1417440,0.4315113
1677921723,28.2921606,77.2945508,-0.0432723,-0.1424845,1.4217998,28.2921648,77.2945458,0.0526442,-0.1417451,0.4315145
1677921723,28.2921606,77.2945508,-0.0432723,-0.1424845,1.4217998,28.2921648,77.2945458,0.0526438,-0.1417440,0.4315113
1677921723,28.2921606,77.2945508,-0.0432723,-0.1424845,1.4217998,28.2921648,77.2945458,0.0526442,-0.1417451,0.4315145
1677921723,28.2921606,77.2945508,-0.0432723,-0.1424845,1.4217998,28.2921648,77.2945458,0.0526438,-0.1417440,0.4315113
1677921723,28.2921606,77.2945508,-0.0432723,-0.1424845,0.5075965,28.2921648,77.2945458,0.0526442,-0.1417451,0.4315145
1677921724,28.2921558,77.2945605,-0.0432723,-0.1424845,0.7467889,28.2921626,77.2945494,0.0526442,-0.1417451,0.4315145
1677921724,28.2921558,77.2945605,-0.0432723,-0.1424845,0.7467889,28.2921626,77.2945494,0.0526438,-0.1417440,0.4315113
1677921724,28.2921558,77.2945605,-0.0441679,-0.2463536,0.6554177,28.2921626,77.2945494,0.0526442,-0.1417451,0.4315145
1677921724,28.2921558,77.2945605,0.0332156,-0.2463536,0.5546512,28.2921626,77.2945494,0.0526438,-0.1417440,0.4315113
1677921724,28.2921558,77.2945605,0.0332156,-0.2463536,0.5546512,28.2921626,77.2945494,0.0526442,-0.1417451,0.4315145
1677921724,28.2921558,77.2945605,0.0332156,-0.2463536,0.5546512,28.2921626,77.2945494,0.0526438,-0.1417440,0.4315113
1677921724,28.2921558,77.2945605,0.0332156,-0.2463536,0.5546512,28.2921626,77.2945494,0.0526442,-0.1417451,0.4315145
1677921724,28.2921558,77.2945605,0.0332156,-0.2463536,0.5546512,28.2921626,77.2945494,0.0526438,-0.1417440,0.4315113
1677921724,28.2921558,77.2945605,0.0332156,-0.2463536,0.5546512,28.2921626,77.2945494,0.0526442,-0.1417451,0.4315145
1677921725,28.2921558,77.2945605,0.0332156,-0.2463536,0.5546512,28.2921613,77.2945516,0.0526442,-0.1417451,0.4315145
1677921725,28.2921558,77.2945605,0.0332156,-0.2463536,0.7452716,28.2921613,77.2945516,0.0526438,-0.1417440,0.4315113
1677921725,28.2921533,77.2945654,0.0332156,-0.2463536,0.7583514,28.2921613,77.2945516,0.0526442,-0.1417451,0.4315145
1677921725,28.2921533,77.2945654,0.0332156,-0.2463536,0.7583514,28.2921613,77.2945516,0.0526438,-0.1417440,0.4315113
1677921725,28.2921533,77.2945654,0.0323017,-0.0743639,0.8857518,28.2921613,77.2945516,0.0526442,-0.1417451,0.4315145
1677921725,28.2921533,77.2945654,0.1948855,-0.0743639,0.7310477,28.2921613,77.2945516,0.0526438,-0.1417440,0.4315113
1677921725,28.2921533,77.2945654,0.1948855,-0.0743639,0.7310477,28.2921613,77.2945516,0.0526442,-0.1417451,0.4315145
1677921725,28.2921533,77.2945654,0.1948855,-0.0743639,0.7310477,28.2921613,77.2945516,0.0526438,-0.1417440,0.4315113
1677921725,28.2921533,77.2945654,0.1948855,-0.0743639,0.7310477,28.2921613,77.2945516,0.0526442,-0.1417451,0.4315145
1677921725,28.2921533,77.2945654,0.1948855,-0.0743639,0.7310477,28.2921613,77.2945516,0.0526438,-0.1417440,0.4315113
1677921726,28.2921533,77.2945654,0.1948855,-0.0743639,0.7310477,28.2921600,77.2945538,0.0526438,-0.1417440,0.4315113
1677921726,28.2921533,77.2945654,0.1948855,-0.0743639,0.4214112,28.2921600,77.2945538,0.0526442,-0.1417451,0.4315145
1677921726,28.2921533,77.2945654,0.1948855,-0.0743639,-0.0089413,28.2921600,77.2945538,0.0526438,-0.1417440,0.4315113
1677921726,28.2921509,77.2945703,0.1948855,-0.0743639,-0.0226888,28.2921600,77.2945538,0.0526442,-0.1417451,0.4315145
1677921726,28.2921509,77.2945703,0.1945430,-0.0453980,-0.0229667,28.2921600,77.2945538,0.0526438,-0.1417440,0.4315113
1677921726,28.2921509,77.2945703,0.1945430,-0.0453980,-0.0229667,28.2921600,77.2945538,0.0526442,-0.1417451,0.4315145
1677921726,28.2921509,77.2945703,-0.0002442,-0.0453980,0.1707074,28.2921600,77.2945538,0.0526438,-0.1417440,0.4315113
1677921726,28.2921509,77.2945703,-0.0002442,-0.0453980,0.1707074,28.2921600,77.2945538,0.0526442,-0.1417451,0.4315145
1677921726,28.2921509,77.2945703,-0.0002442,-0.0453980,0.1707074,28.2921600,77.2945538,0.0526438,-0.1417440,0.4315113
1677921726,28.2921509,77.2945703,-0.0002442,-0.0453980,0.1707074,28.2921600,77.2945538,0.0526442,-0.1417451,0.4315145
1677921727,28.2921509,77.2945703,-0.0002442,-0.0453980,0.1707074,28.2921587,77.2945562,0.0526442,-0.1417451,0.4315145
1677921727,28.2921509,77.2945703,-0.0002442,-0.0453980,0.1502032,28.2921587,77.2945562,0.0526438,-0.1417440,0.4315113
1677921727,28.2921509,77.2945703,-0.0002442,-0.0453980,0.0002128,28.2921587,77.2945562,0.0526442,-0.1417451,0.4315145
1677921727,28.2921509,77.2945752,-0.0002442,-0.0453980,0.0002256,28.2921587,77.2945562,0.0526438,-0.1417440,0.4315113
1677921727,28.2921509,77.2945752,-0.0002469,-0.1540794,0.0002094,28.2921587,77.2945562,0.0526442,-0.1417451,0.4315145
1677921727,28.2921509,77.2945752,-0.0002469,-0.1540794,0.0002094,28.2921587,77.2945562,0.0526438,-0.1417440,0.4315113
1677921727,28.2921509,77.2945752,0.0543484,-0.1540794,-0.0460363,28.2921587,77.2945562,0.0526442,-0.1417451,0.4315145
1677921727,28.2921509,77.2945752,0.0543484,-0.1540794,-0.0460363,28.2921587,77.2945562,0.0526438,-0.1417440,0.4315113
1677921727,28.2921509,77.2945752,0.0543484,-0.1540794,-0.0460363,28.2921587,77.2945562,0.0526442,-0.1417451,0.4315145
1677921727,28.2921509,77.2945752,0.0543484,-0.1540794,-0.0460363,28.2921587,77.2945562,0.0526438,-0.1417440,0.4315113
1677921728,28.2921509,77.2945752,0.0543484,-0.1540794,-0.0460363,28.2921577,77.2945585,0.0526438,-0.1417440,0.4315113
1677921728,28.2921509,77.2945752,0.0543484,-0.1540794,-0.0494872,28.2921577,77.2945585,0.0526442,-0.1417451,0.4315145
1677921728,28.2921582,77.2945801,0.0543484,-0.1540794,0.0198942,28.2921577,77.2945585,0.0526438,-0.1417440,0.4315113
1677921728,28.2921582,77.2945801,0.0543484,-0.1540794,0.0198942,28.2921577,77.2945585,0.0526442,-0.1417451,0.4315145
1677921728,28.2921582,77.2945801,0.0537097,-0.0147620,0.0233932,28.2921577,77.2945585,0.0526438,-0.1417440,0.4315113
1677921728,28.2921582,77.2945801,0.4487766,-0.0147620,-0.3816327,28.2921577,77.2945585,0.0526442,-0.1417451,0.4315145
1677921728,28.2921582,77.2945801,0.4487766,-0.0147620,-0.3816327,28.2921577,77.2945585,0.0526438,-0.1417440,0.4315113
1677921728,28.2921582,77.2945801,0.4487766,-0.0147620,-0.3816327,28.2921577,77.2945585,0.0526442,-0.1417451,0.4315145
1677921728,28.2921582,77.2945801,0.4487766,-0.0147620,-0.3816327,28.2921577,77.2945585,0.0526438,-0.1417440,0.4315113
1677921728,28.2921582,77.2945801,0.4487766,-0.0147620,-0.3816327,28.2921577,77.2945585,0.0526442,-0.1417451,0.4315145
1677921729,28.2921582,77.2945801,0.4487766,-0.0147620,-0.3816327,28.2921578,77.2945609,0.0526442,-0.1417451,0.4315145
1677921729,28.2921582,77.2945801,0.4487766,-0.0147620,-0.3917861,28.2921578,77.2945609,0.0526438,-0.1417440,0.4315113
1677921729,28.2921582,77.2945801,0.4487766,-0.0147620,-0.3096188,28.2921578,77.2945609,0.0526442,-0.1417451,0.4315145
1677921729,28.2921631,77.2945850,0.4487766,-0.0147620,-0.3267465,28.2921578,77.2945609,0.0526438,-0.1417440,0.4315113
1677921729,28.2921631,77.2945850,0.4494943,-0.0565140,-0.3140382,28.2921578,77.2945609,0.0526442,-0.1417451,0.4315145
1677921729,28.2921631,77.2945850,0.4494943,-0.0565140,-0.3140382,28.2921578,77.2945609,0.0526438,-0.1417440,0.4315113
1677921729,28.2921631,77.2945850,0.7105542,-0.0565140,-0.5391622,28.2921578,77.2945609,0.0526442,-0.1417451,0.4315145
1677921729,28.2921631,77.2945850,0.7105542,-0.0565140,-0.5391622,28.2921578,77.2945609,0.0526438,-0.1417440,0.4315113
1677921729,28.2921631,77.2945850,0.7105542,-0.0565140,-0.5391622,28.2921578,77.2945609,0.0526442,-0.1417451,0.4315145
1677921729,28.2921631,77.2945850,0.7105542,-0.0565140,-0.5391622,28.2921578,77.2945609,0.0526438,-0.1417440,0.4315113
1677921730,28.2921631,77.2945850,0.7105542,-0.0565140,-0.5391622,28.2921583,77.2945633,0.0526438,-0.1417440,0.4315114
1677921730,28.2921631,77.2945850,0.7105542,-0.0565140,-0.5391622,28.2921583,77.2945633,0.0526442,-0.1417451,0.4315146
1677921730,28.2921631,77.2945850,0.7105542,-0.0565140,-0.5137814,28.2921583,77.2945633,0.0526438,-0.1417440,0.4315114
1677921730,28.2921631,77.2945850,0.7105542,-0.0565140,-0.5506003,28.2921583,77.2945633,0.0526442,-0.1417451,0.4315146
1677921730,28.2921680,77.2945898,0.7105542,-0.0565140,-0.5833353,28.2921583,77.2945633,0.0526438,-0.1417440,0.4315114
1677921730,28.2921680,77.2945898,-nan,nan,-nan,28.2921583,77.2945633,0.0526442,-0.1417451,0.4315146
1677921730,28.2921680,77.2945898,-nan,nan,-nan,28.2921583,77.2945633,0.0526438,-0.1417440,0.4315114
1677921730,28.2921680,77.2945898,-nan,nan,-nan,28.2921583,77.2945633,0.0526442,-0.1417451,0.4315146
1677921730,28.2921680,77.2945898,-nan,nan,-nan,28.2921583,77.2945633,0.0526438,-0.1417440,0.4315114
1677921730,28.2921680,77.2945898,-nan,nan,-nan,28.2921583,77.2945633,0.0526442,-0.1417451,0.4315146
1677921731,28.2921680,77.2945898,-nan,nan,-nan,28.2921592,77.2945657,0.0526442,-0.1417451,0.4315146
1677921731,28.2921680,77.2945898,-nan,nan,-nan,28.2921592,77.2945657,0.0526438,-0.1417440,0.4315114
1677921731,28.2921680,77.2945898,-nan,nan,-nan,28.2921592,77.2945657,0.0526442,-0.1417451,0.4315146
1677921731,28.2921680,77.2945898,-nan,nan,-nan,28.2921592,77.2945657,0.0526438,-0.1417440,0.4315114
1677921731,28.2921729,77.2945898,-nan,nan,-nan,28.2921592,77.2945657,0.0526442,-0.1417451,0.4315146
1677921731,28.2921729,77.2945898,0.0346846,0.0422230,0.1044153,28.2921592,77.2945657,0.0526438,-0.1417440,0.4315114
1677921731,28.2921729,77.2945898,0.0346846,0.0422230,0.1044153,28.2921592,77.2945657,0.0526442,-0.1417451,0.4315146
1677921731,28.2921729,77.2945898,0.0809214,0.0422230,0.0470888,28.2921592,77.2945657,0.0526438,-0.1417440,0.4315114
1677921731,28.2921729,77.2945898,0.0809214,0.0422230,0.0470888,28.2921592,77.2945657,0.0526442,-0.1417451,0.4315146
1677921731,28.2921729,77.2945898,0.0809214,0.0422230,0.0470888,28.2921592,77.2945657,0.0526438,-0.1417440,0.4315114
1677921732,28.2921729,77.2945898,0.0809214,0.0422230,0.0470888,28.2921603,77.2945677,0.0526438,-0.1417440,0.4315114
1677921732,28.2921729,77.2945898,0.0809214,0.0422230,0.0470888,28.2921603,77.2945677,0.0526442,-0.1417451,0.4315146
1677921732,28.2921729,77.2945898,0.0809214,0.0422230,0.0470888,28.2921603,77.2945677,0.0526438,-0.1417440,0.4315114
1677921732,28.2921729,77.2945898,0.0809214,0.0422230,0.0243099,28.2921603,77.2945677,0.0526442,-0.1417451,0.4315146
1677921732,28.2921777,77.2945947,0.0809214,0.0422230,0.0254052,28.2921603,77.2945677,0.0526438,-0.1417440,0.4315114
1677921732,28.2921777,77.2945947,0.0809214,0.0422230,0.0254052,28.2921603,77.2945677,0.0526442,-0.1417451,0.4315146
1677921732,28.2921777,77.2945947,0.0811196,-0.0815835,0.0220332,28.2921603,77.2945677,0.0526438,-0.1417440,0.4315114
1677921732,28.2921777,77.2945947,0.5600492,-0.0815835,-0.4290789,28.2921603,77.2945677,0.0526442,-0.1417451,0.4315146
1677921732,28.2921777,77.2945947,0.5600492,-0.0815835,-0.4290789,28.2921603,77.2945677,0.0526438,-0.1417440,0.4315114
1677921733,28.2921777,77.2945947,0.5600492,-0.0815835,-0.4290789,28.2921616,77.2945697,0.0526438,-0.1417439,0.4315114
1677921733,28.2921777,77.2945947,0.5600492,-0.0815835,-0.4290789,28.2921616,77.2945697,0.0526442,-0.1417450,0.4315146
1677921733,28.2921777,77.2945947,0.5600492,-0.0815835,-0.4212176,28.2921616,77.2945697,0.0526438,-0.1417439,0.4315114
1677921733,28.2921777,77.2945947,0.5600492,-0.0815835,-0.4117296,28.2921616,77.2945697,0.0526442,-0.1417450,0.4315146
1677921733,28.2921826,77.2945947,0.5600492,-0.0815835,-0.4117296,28.2921616,77.2945697,0.0526438,-0.1417439,0.4315114
1677921733,28.2921826,77.2945947,0.5629592,-0.1259885,-0.4018325,28.2921616,77.2945697,0.0526442,-0.1417450,0.4315146
1677921733,28.2921826,77.2945947,0.5629592,-0.1259885,-0.4018325,28.2921616,77.2945697,0.0526438,-0.1417439,0.4315114
1677921733,28.2921826,77.2945947,0.1310926,-0.1259885,-0.0379751,28.2921616,77.2945697,0.0526442,-0.1417450,0.4315146
1677921733,28.2921826,77.2945947,0.1310926,-0.1259885,-0.0379751,28.2921616,77.2945697,0.0526438,-0.1417439,0.4315114
1677921733,28.2921826,77.2945947,0.1310926,-0.1259885,-0.0379751,28.2921616,77.2945697,0.0526442,-0.1417450,0.4315146
1677921734,28.2921826,77.2945947,0.1310926,-0.1259885,-0.0379751,28.2921631,77.2945715,0.0526442,-0.1417450,0.4315147
1677921734,28.2921826,77.2945947,0.1310926,-0.1259885,-0.0379751,28.2921631,77.2945715,0.0526438,-0.1417439,0.4315114
1677921734,28.2921826,77.2945947,0.1310926,-0.1259885,-0.0379751,28.2921631,77.2945715,0.0526442,-0.1417450,0.4315147
1677921734,28.2921826,77.2945947,0.1310926,-0.1259885,-0.0351015,28.2921631,77.2945715,0.0526438,-0.1417439,0.4315114
1677921734,28.2921826,77.2945947,0.1310926,-0.1259885,-0.0481383,28.2921631,77.2945715,0.0526442,-0.1417450,0.4315147
1677921734,28.2921924,77.2946045,0.1310926,-0.1259885,-0.0474826,28.2921631,77.2945715,0.0526438,-0.1417439,0.4315114
1677921734,28.2921924,77.2946045,0.1313796,-0.1421148,-0.0471804,28.2921631,77.2945715,0.0526442,-0.1417450,0.4315147
1677921734,28.2921924,77.2946045,0.1829176,-0.1421148,-0.0899436,28.2921631,77.2945715,0.0526438,-0.1417439,0.4315114
1677921734,28.2921924,77.2946045,0.1829176,-0.1421148,-0.0899436,28.2921631,77.2945715,0.0526442,-0.1417450,0.4315147
1677921734,28.2921924,77.2946045,0.1829176,-0.1421148,-0.0899436,28.2921631,77.2945715,0.0526438,-0.1417439,0.4315114
1677921735,28.2921924,77.2946045,0.1829176,-0.1421148,-0.0899436,28.2921651,77.2945737,0.0526438,-0.1417439,0.4315115
1677921735,28.2921924,77.2946045,0.1829176,-0.1421148,-0.0899436,28.2921651,77.2945737,0.0526442,-0.1417450,0.4315147
1677921735,28.2921924,77.2946045,0.1829176,-0.1421148,-0.0899436,28.2921651,77.2945737,0.0526438,-0.1417439,0.4315115
1677921735,28.2921924,77.2946045,0.1829176,-0.1421148,-0.0899436,28.2921651,77.2945737,0.0526442,-0.1417450,0.4315147
1677921735,28.2921924,77.2946045,0.1829176,-0.1421148,-0.0427434,28.2921651,77.2945737,0.0526438,-0.1417439,0.4315115
1677921735,28.2921924,77.2946045,0.1829176,-0.1421148,-0.0450970,28.2921651,77.2945737,0.0526442,-0.1417450,0.4315147
1677921735,28.2921924,77.2946045,0.1829176,-0.1421148,-0.0450970,28.2921651,77.2945737,0.0526438,-0.1417439,0.4315115
1677921735,28.2921924,77.2946045,0.1812388,-0.0450316,-0.0472492,28.2921651,77.2945737,0.0526442,-0.1417450,0.4315147
1677921735,28.2921924,77.2946045,0.1320280,-0.0450316,-0.0004610,28.2921651,77.2945737,0.0526438,-0.1417439,0.4315115
1677921735,28.2921924,77.2946045,0.1320280,-0.0450316,-0.0004610,28.2921651,77.2945737,0.0526442,-0.1417450,0.4315147
1677921736,28.2921924,77.2946045,0.1320280,-0.0450316,-0.0004610,28.2921668,77.2945756,0.0526443,-0.1417450,0.4315147
1677921736,28.2921924,77.2946045,0.1320280,-0.0450316,-0.0004610,28.2921668,77.2945756,0.0526438,-0.1417439,0.4315115
1677921736,28.2921924,77.2946045,0.1320280,-0.0450316,-0.0004610,28.2921668,77.2945756,0.0526443,-0.1417450,0.4315147
1677921736,28.2921924,77.2946045,0.1320280,-0.0450316,-0.0004610,28.2921668,77.2945756,0.0526438,-0.1417439,0.4315115
1677921736,28.2921924,77.2946045,0.1320280,-0.0450316,-0.0004610,28.2921668,77.2945756,0.0526443,-0.1417450,0.4315147
1677921736,28.2921924,77.2946045,0.1320280,-0.0450316,-0.0004664,28.2921668,77.2945756,0.0526438,-0.1417439,0.4315115
1677921736,28.2921924,77.2946045,0.1320280,-0.0450316,-0.0150262,28.2921668,77.2945756,0.0526443,-0.1417450,0.4315147
1677921736,28.2921973,77.2946094,0.1320280,-0.0450316,-0.0142566,28.2921668,77.2945756,0.0526438,-0.1417439,0.4315115
1677921736,28.2921973,77.2946094,0.1341165,0.1817973,-0.0211213,28.2921668,77.2945756,0.0526443,-0.1417450,0.4315147
1677921736,28.2921973,77.2946094,0.0894278,0.1817973,0.0343629,28.2921668,77.2945756,0.0526438,-0.1417439,0.4315115
1677921737,28.2921973,77.2946094,0.0894278,0.1817973,0.0343629,28.2921685,77.2945776,0.0526439,-0.1417439,0.4315115
1677921737,28.2921973,77.2946094,0.0894278,0.1817973,0.0343629,28.2921685,77.2945776,0.0526443,-0.1417450,0.4315147
1677921737,28.2921973,77.2946094,0.0894278,0.1817973,0.0343629,28.2921685,77.2945776,0.0526439,-0.1417439,0.4315115
1677921737,28.2921973,77.2946094,0.0894278,0.1817973,0.0343629,28.2921685,77.2945776,0.0526443,-0.1417450,0.4315147
1677921737,28.2921973,77.2946094,0.0894278,0.1817973,0.0343629,28.2921685,77.2945776,0.0526439,-0.1417439,0.4315115
1677921737,28.2921973,77.2946094,0.0894278,0.1817973,0.0343629,28.2921685,77.2945776,0.0526443,-0.1417450,0.4315147
1677921737,28.2921973,77.2946094,0.0894278,0.1817973,-0.0038161,28.2921685,77.2945776,0.0526439,-0.1417439,0.4315115
1677921739,28.2922168,77.2946289,0.0783556,-0.1325087,0.1468247,28.2921712,77.2945804,0.0526439,-0.1417438,0.4315116
1677921739,28.2922168,77.2946289,0.0783556,-0.1325087,0.1468247,28.2921712,77.2945804,0.0526443,-0.1417449,0.4315148
1677921740,28.2922168,77.2946289,0.0986149,-0.6631342,0.0962837,28.2921736,77.2945830,0.0526443,-0.1417449,0.4315148
1677921740,28.2922168,77.2946289,-0.0978371,-0.6631342,0.2463064,28.2921736,77.2945830,0.0526439,-0.1417438,0.4315116
1677921740,28.2922168,77.2946289,-0.0978371,-0.6631342,0.2463064,28.2921736,77.2945830,0.0526443,-0.1417449,0.4315148
1677921740,28.2922168,77.2946289,-0.0978371,-0.6631342,0.2463064,28.2921736,77.2945830,0.0526439,-0.1417438,0.4315116
1677921740,28.2922168,77.2946289,-0.0978371,-0.6631342,0.2463064,28.2921736,77.2945830,0.0526443,-0.1417449,0.4315148
1677921740,28.2922168,77.2946289,-0.0978371,-0.6631342,0.2463064,28.2921736,77.2945830,0.0526439,-0.1417438,0.4315116
1677921740,28.2922168,77.2946289,-0.0978371,-0.6631342,0.2463064,28.2921736,77.2945830,0.0526443,-0.1417449,0.4315148
1677921740,28.2922168,77.2946289,-0.0978371,-0.6631342,0.2463064,28.2921736,77.2945830,0.0526439,-0.1417438,0.4315116
1677921740,28.2922168,77.2946289,-0.0978371,-0.6631342,0.1039631,28.2921736,77.2945830,0.0526443,-0.1417449,0.4315148
1677921740,28.2922168,77.2946289,-0.0978371,-0.6631342,0.1030369,28.2921736,77.2945830,0.0526439,-0.1417438,0.4315116
1677921741,28.2922168,77.2946289,-0.0934213,-0.6002389,0.1007586,28.2921757,77.2945853,0.0526439,-0.1417438,0.4315116
1677921741,28.2922168,77.2946289,-0.1421061,-0.6002389,0.1340678,28.2921757,77.2945853,0.0526443,-0.1417449,0.4315148
1677921741,28.2922168,77.2946289,-0.1421061,-0.6002389,0.1340678,28.2921757,77.2945853,0.0526439,-0.1417438,0.4315116
1677921741,28.2922168,77.2946289,-0.1421061,-0.6002389,0.1340678,28.2921757,77.2945853,0.0526443,-0.1417449,0.4315148
1677921741,28.2922168,77.2946289,-0.1421061,-0.6002389,0.1340678,28.2921757,77.2945853,0.0526439,-0.1417438,0.4315116
1677921741,28.2922168,77.2946289,-0.1421061,-0.6002389,0.1407443,28.2921757,77.2945853,0.0526443,-0.1417449,0.4315148
1677921741,28.2922168,77.2946289,-0.1421061,-0.6002389,0.1740016,28.2921757,77.2945853,0.0526439,-0.1417438,0.4315116
1677921742,28.2922314,77.2946436,0.1304581,0.0251337,0.0053806,28.2921784,77.2945880,0.0526439,-0.1417438,0.4315116
1677921742,28.2922314,77.2946436,0.1304581,0.0251337,0.0053806,28.2921784,77.2945880,0.0526443,-0.1417449,0.4315149
1677921743,28.2922314,77.2946436,0.1305371,0.0428336,0.0054010,28.2921808,77.2945905,0.0526443,-0.1417448,0.4315149
1677921743,28.2922314,77.2946436,0.0784736,0.0428336,0.0600822,28.2921808,77.2945905,0.0526439,-0.1417437,0.4315117
1677921743,28.2922314,77.2946436,0.0784736,0.0428336,0.0600822,28.2921808,77.2945905,0.0526443,-0.1417448,0.4315149
1677921743,28.2922314,77.2946436,0.0784736,0.0428336,0.0600822,28.2921808,77.2945905,0.0526439,-0.1417437,0.4315117
1677921743,28.2922314,77.2946436,0.0784736,0.0428336,0.0600822,28.2921808,77.2945905,0.0526443,-0.1417448,0.4315149
1677921743,28.2922314,77.2946436,0.0784736,0.0428336,0.0600822,28.2921808,77.2945905,0.0526439,-0.1417437,0.4315117
1677921743,28.2922314,77.2946436,0.0784736,0.0428336,0.0600822,28.2921808,77.2945905,0.0526443,-0.1417448,0.4315149
1677921743,28.2922314,77.2946436,0.0784736,0.0428336,0.0600822,28.2921808,77.2945905,0.0526439,-0.1417437,0.4315117
1677921743,28.2922314,77.2946436,0.0784736,0.0428336,0.0560164,28.2921808,77.2945905,0.0526443,-0.1417448,0.4315149
1677921743,28.2922314,77.2946436,0.0784736,0.0428336,0.0706432,28.2921808,77.2945905,0.0526439,-0.1417437,0.4315117
1677921744,28.2922314,77.2946436,0.0784736,0.0428336,0.0706432,28.2921830,77.2945928,0.0526439,-0.1417437,0.4315118
1677921744,28.2922314,77.2946436,0.0784995,-0.0499169,0.0647171,28.2921830,77.2945928,0.0526443,-0.1417448,0.4315150
1677921744,28.2922314,77.2946436,0.1687530,-0.0499169,-0.0172227,28.2921830,77.2945928,0.0526439,-0.1417437,0.4315118
1677921744,28.2922314,77.2946436,0.1687530,-0.0499169,-0.0172227,28.2921830,77.2945928,0.0526443,-0.1417448,0.4315150
1677921744,28.2922314,77.2946436,0.1687530,-0.0499169,-0.0172227,28.2921830,77.2945928,0.0526439,-0.1417437,0.4315118
1677921744,28.2922314,77.2946436,0.1687530,-0.0499169,-0.0172227,28.2921830,77.2945928,0.0526443,-0.1417448,0.4315150
1677921744,28.2922314,77.2946436,0.1687530,-0.0499169,-0.0172227,28.2921830,77.2945928,0.0526439,-0.1417437,0.4315118
1677921744,28.2922314,77.2946436,0.1687530,-0.0499169,-0.0171260,28.2921830,77.2945928,0.0526443,-0.1417448,0.4315150
1677921745,28.2922461,77.2946582,0.2005281,0.0761990,-0.0294498,28.2921856,77.2945955,0.0526443,-0.1417448,0.4315150
1677921745,28.2922461,77.2946582,0.2005281,0.0761990,-0.0294498,28.2921856,77.2945955,0.0526438,-0.1417437,0.4315118
1677921745,28.2922461,77.2946582,0.2002164,-0.0523600,-0.0256746,28.2921856,77.2945955,0.0526443,-0.1417448,0.4315150
1677921746,28.2922461,77.2946582,0.0035427,-0.0523600,0.1519260,28.2921880,77.2945980,0.0526442,-0.1417447,0.4315151
1677921746,28.2922461,77.2946582,0.0035427,-0.0523600,0.1519260,28.2921880,77.2945980,0.0526438,-0.1417436,0.4315119
1677921746,28.2922461,77.2946582,0.0035427,-0.0523600,0.1519260,28.2921880,77.2945980,0.0526442,-0.1417447,0.4315151
1677921746,28.2922461,77.2946582,0.0035427,-0.0523600,0.1519260,28.2921880,77.2945980,0.0526438,-0.1417436,0.4315119
1677921746,28.2922461,77.2946582,0.0035427,-0.0523600,0.1519260,28.2921880,77.2945980,0.0526442,-0.1417447,0.4315151
1677921746,28.2922461,77.2946582,0.0035427,-0.0523600,0.1519260,28.2921880,77.2945980,0.0526438,-0.1417436,0.4315119
1677921746,28.2922461,77.2946582,0.0035427,-0.0523600,0.1503048,28.2921880,77.2945980,0.0526442,-0.1417447,0.4315151
1677921746,28.2922461,77.2946582,0.0035427,-0.0523600,0.1476523,28.2921880,77.2945980,0.0526438,-0.1417436,0.4315119
1677921746,28.2922461,77.2946582,0.0035427,-0.0523600,0.1476523,28.2921880,77.2945980,0.0526442,-0.1417447,0.4315151
1677921746,28.2922461,77.2946582,0.0035458,-0.0666590,0.1459389,28.2921880,77.2945980,0.0526438,-0.1417436,0.4315119
1677921747,28.2922461,77.2946582,-0.0931801,-0.0666590,0.2275266,28.2921902,77.2946003,0.0526438,-0.1417436,0.4315119
1677921747,28.2922461,77.2946582,-0.0931801,-0.0666590,0.2275266,28.2921902,77.2946003,0.0526442,-0.1417447,0.4315152
1677921747,28.2922461,77.2946582,-0.0931801,-0.0666590,0.2275266,28.2921902,77.2946003,0.0526438,-0.1417436,0.4315119
1677921747,28.2922461,77.2946582,-0.0931801,-0.0666590,0.2275266,28.2921902,77.2946003,0.0526442,-0.1417447,0.4315152
1677921747,28.2922461,77.2946582,-0.0931801,-0.0666590,0.2275266,28.2921902,77.2946003,0.0526438,-0.1417436,0.4315119
1677921747,28.2922461,77.2946582,-0.0931801,-0.0666590,0.2229130,28.2921902,77.2946003,0.0526442,-0.1417447,0.4315152
1677921747,28.2922510,77.2946631,-0.0931801,-0.0666590,0.2328574,28.2921902,77.2946003,0.0526438,-0.1417436,0.4315119
1677921747,28.2922510,77.2946631,-0.0931801,-0.0666590,0.2328574,28.2921902,77.2946003,0.0526442,-0.1417447,0.4315152
1677921747,28.2922510,77.2946631,-0.0929764,0.0091498,0.2474319,28.2921902,77.2946003,0.0526438,-0.1417436,0.4315119
1677921747,28.2922510,77.2946631,-0.1955919,0.0091498,0.3306760,28.2921902,77.2946003,0.0526442,-0.1417447,0.4315152
1677921748,28.2922510,77.2946631,-0.1955919,0.0091498,0.3306760,28.2921925,77.2946027,0.0526442,-0.1417447,0.4315152
1677921748,28.2922510,77.2946631,-0.1955919,0.0091498,0.3306760,28.2921925,77.2946027,0.0526438,-0.1417436,0.4315120
1677921748,28.2922510,77.2946631,-0.1955919,0.0091498,0.3306760,28.2921925,77.2946027,0.0526442,-0.1417447,0.4315152
1677921748,28.2922510,77.2946631,-0.1955919,0.0091498,0.3306760,28.2921925,77.2946027,0.0526438,-0.1417436,0.4315120
1677921748,28.2922510,77.2946631,-0.1955919,0.0091498,0.3306760,28.2921925,77.2946027,0.0526442,-0.1417447,0.4315152
1677921748,28.2922510,77.2946631,-0.1955919,0.0091498,0.3306760,28.2921925,77.2946027,0.0526438,-0.1417436,0.4315120
1677921748,28.2922510,77.2946631,-0.1955919,0.0091498,0.4017818,28.2921925,77.2946027,0.0526442,-0.1417447,0.4315152
1677921748,28.2922607,77.2946729,-0.1955919,0.0091498,0.4090336,28.2921925,77.2946027,-0.1955919,0.0091498,0.4090336
1677921748,28.2922607,77.2946729,-0.1956100,0.0163481,0.4117079,28.2921925,77.2946027,-0.1956100,0.0163481,0.4117079
1677921748,28.2922607,77.2946729,-0.2281851,0.0163481,0.4384654,28.2921925,77.2946027,-0.2281851,0.0163481,0.4384654
1677921749,28.2922607,77.2946729,-0.2281851,0.0163481,0.4384654,28.2921925,77.2946027,-0.2281851,0.0163481,0.4384654
1677921749,28.2922607,77.2946729,-0.2281851,0.0163481,0.4384654,28.2921925,77.2946027,-0.2281851,0.0163481,0.4384654
1677921749,28.2922607,77.2946729,-0.2281851,0.0163481,0.4384654,28.2921925,77.2946027,-0.2281851,0.0163481,0.4384654
1677921749,28.2922607,77.2946729,-0.2281851,0.0163481,0.4384654,28.2921925,77.2946027,-0.2281851,0.0163481,0.4384654
1677921749,28.2922607,77.2946729,-0.2281851,0.0163481,0.4384654,28.2921925,77.2946027,-0.2281851,0.0163481,0.4384654
1677921749,28.2922607,77.2946729,-0.2281851,0.0163481,0.4233919,28.2921925,77.2946027,-0.2281851,0.0163481,0.4233919
1677921749,28.2922607,77.2946729,-0.2281851,0.0163481,0.4384910,28.2921925,77.2946027,-0.2281851,0.0163481,0.4384910
1677921749,28.2922607,77.2946729,-0.2299019,0.1223003,0.4844784,28.2921925,77.2946027,-0.2299019,0.1223003,0.4844784
1677921749,28.2922607,77.2946729,0.0340537,0.1223003,0.2344534,28.2921925,77.2946027,0.0340537,0.1223003,0.2344534
1677921749,28.2922607,77.2946729,0.0340537,0.1223003,0.2344534,28.2921925,77.2946027,0.0340537,0.1223003,0.2344534
1677921750,28.2922607,77.2946729,0.0340537,0.1223003,0.2344534,28.2921925,77.2946027,0.0340537,0.1223003,0.2344534
1677921750,28.2922607,77.2946729,0.0340537,0.1223003,0.2344534,28.2921925,77.2946027,0.0340537,0.1223003,0.2344534
1677921750,28.2922607,77.2946729,0.0340537,0.1223003,0.2344534,28.2921925,77.2946027,0.0340537,0.1223003,0.2344534
1677921750,28.2922607,77.2946729,0.0340537,0.1223003,0.2344534,28.2921925,77.2946027,0.0340537,0.1223003,0.2344534
1677921750,28.2922607,77.2946729,0.0340537,0.1223003,0.2344534,28.2921925,77.2946027,0.0340537,0.1223003,0.2344534
1677921750,28.2922607,77.2946729,0.0340537,0.1223003,0.2524493,28.2921925,77.2946027,0.0340537,0.1223003,0.2524493
1677921750,28.2922681,77.2946777,0.0340537,0.1223003,0.2421262,28.2921952,77.2946053,0.0526442,-0.1417446,0.4315153
1677921750,28.2922681,77.2946777,0.0340537,0.1223003,0.2421262,28.2921952,77.2946053,0.0526438,-0.1417435,0.4315121
1677921750,28.2922681,77.2946777,0.0338860,-0.0715505,0.1956935,28.2921952,77.2946053,0.0526442,-0.1417446,0.4315153
1677921751,28.2922681,77.2946777,-0.0034246,-0.0715505,0.2313099,28.2921977,77.2946078,0.0526442,-0.1417446,0.4315154
1677921751,28.2922681,77.2946777,-0.0034246,-0.0715505,0.2313099,28.2921977,77.2946078,0.0526438,-0.1417435,0.4315121
1677921751,28.2922681,77.2946777,-0.0034246,-0.0715505,0.2313099,28.2921977,77.2946078,0.0526442,-0.1417446,0.4315154
1677921751,28.2922681,77.2946777,-0.0034246,-0.0715505,0.2313099,28.2921977,77.2946078,0.0526438,-0.1417435,0.4315121
1677921751,28.2922681,77.2946777,-0.0034246,-0.0715505,0.2313099,28.2921977,77.2946078,0.0526442,-0.1417446,0.4315154
1677921751,28.2922681,77.2946777,-0.0034246,-0.0715505,0.2313099,28.2921977,77.2946078,0.0526438,-0.1417435,0.4315121
1677921751,28.2922681,77.2946777,-0.0034246,-0.0715505,0.2313099,28.2921977,77.2946078,0.0526442,-0.1417446,0.4315154
1677921751,28.2922681,77.2946777,-0.0034246,-0.0715505,0.2100552,28.2921977,77.2946078,0.0526438,-0.1417435,0.4315121
1677921751,28.2922754,77.2946826,-0.0034246,-0.0715505,0.2101598,28.2921977,77.2946078,0.0526442,-0.1417446,0.4315154
1677921751,28.2922754,77.2946826,-0.0034246,-0.0715505,0.2101598,28.2921977,77.2946078,0.0526438,-0.1417435,0.4315121
1677921752,28.2922754,77.2946826,-0.0034167,-0.0214729,0.2207507,28.2922003,77.2946103,0.0526437,-0.1417434,0.4315122
1677921752,28.2922754,77.2946826,0.0534719,-0.0214729,0.1608301,28.2922003,77.2946103,0.0526442,-0.1417445,0.4315154
1677921752,28.2922754,77.2946826,0.0534719,-0.0214729,0.1608301,28.2922003,77.2946103,0.0526437,-0.1417434,0.4315122
1677921752,28.2922754,77.2946826,0.0534719,-0.0214729,0.1608301,28.2922003,77.2946103,0.0526442,-0.1417445,0.4315154
1677921752,28.2922754,77.2946826,0.0534719,-0.0214729,0.1608301,28.2922003,77.2946103,0.0526437,-0.1417434,0.4315122
1677921752,28.2922754,77.2946826,0.0534719,-0.0214729,0.1608301,28.2922003,77.2946103,0.0526442,-0.1417445,0.4315154
1677921752,28.2922754,77.2946826,0.0534719,-0.0214729,0.1608301,28.2922003,77.2946103,0.0526437,-0.1417434,0.4315122
1677921752,28.2922754,77.2946826,0.0534719,-0.0214729,0.1608301,28.2922003,77.2946103,0.0526442,-0.1417445,0.4315154
1677921752,28.2922754,77.2946826,0.0534719,-0.0214729,0.1442575,28.2922003,77.2946103,0.0526437,-0.1417434,0.4315122
1677921752,28.2922803,77.2946875,0.0534719,-0.0214729,0.1467752,28.2922003,77.2946103,0.0526442,-0.1417445,0.4315154
1677921753,28.2922803,77.2946875,0.0534719,-0.0214729,0.1467752,28.2922028,77.2946128,0.0526441,-0.1417445,0.4315155
1677921753,28.2922803,77.2946875,0.0534665,0.0161041,0.1523404,28.2922028,77.2946128,0.0526437,-0.1417433,0.4315121
1677921753,28.2922803,77.2946875,0.0217197,0.0161041,0.1839117,28.2922028,77.2946128,0.0526441,-0.1417444,0.4315154
1677921753,28.2922803,77.2946875,0.0217197,0.0161041,0.1839117,28.2922028,77.2946128,0.0526441,-0.1417444,0.4315154
1677921753,28.2922803,77.2946875,0.0217197,0.0161041,0.1839117,28.2922028,77.2946128,0.0526441,-0.1417444,0.4315154
1677921753,28.2922803,77.2946875,0.0217197,0.0161041,0.1839117,28.2922028,77.2946128,0.0526441,-0.1417444,0.4315154
1677921753,28.2922803,77.2946875,0.0217197,0.0161041,0.1839117,28.2922028,77.2946128,0.0526441,-0.1417444,0.4315154
1677921753,28.2922803,77.2946875,0.0217197,0.0161041,0.1839117,28.2922028,77.2946128,0.0526441,-0.1417444,0.4315154
1677921753,28.2922803,77.2946875,0.0217197,0.0161041,0.1839117,28.2922028,77.2946128,0.0526441,-0.1417444,0.4315154
1677921753,28.2922803,77.2946875,0.0217197,0.0161041,0.1896183,28.2922028,77.2946128,0.0526441,-0.1417444,0.4315154
1677921754,28.2922900,77.2947021,0.0217197,0.0161041,0.1893431,28.2922056,77.2946156,0.0526441,-0.1417444,0.4315155
1677921754,28.2922900,77.2947021,0.0218136,-0.0941979,0.1706453,28.2922056,77.2946156,0.0526441,-0.1417444,0.4315155
1677921754,28.2922900,77.2947021,0.0218136,-0.0941979,0.1706453,28.2922056,77.2946156,0.0526441,-0.1417444,0.4315155
1677921754,28.2922900,77.2947021,0.0074749,-0.0941979,0.1838217,28.2922056,77.2946156,0.0526441,-0.1417444,0.4315155
1677921754,28.2922900,77.2947021,0.0074749,-0.0941979,0.1838217,28.2922056,77.2946156,0.0526441,-0.1417444,0.4315155
1677921754,28.2922900,77.2947021,0.0074749,-0.0941979,0.1838217,28.2922056,77.2946156,0.0526441,-0.1417444,0.4315155
1677921754,28.2922900,77.2947021,0.0074749,-0.0941979,0.1838217,28.2922056,77.2946156,0.0526441,-0.1417444,0.4315155
1677921754,28.2922900,77.2947021,0.0074749,-0.0941979,0.1838217,28.2922056,77.2946156,0.0526441,-0.1417444,0.4315155
1677921754,28.2922900,77.2947021,0.0074749,-0.0941979,0.1838217,28.2922056,77.2946156,0.0526441,-0.1417444,0.4315155
1677921754,28.2922900,77.2947021,0.0074749,-0.0941979,0.1823537,28.2922056,77.2946156,0.0526441,-0.1417444,0.4315155
1677921755,28.2922900,77.2947021,0.0074749,-0.0941979,0.1182335,28.2922081,77.2946182,0.0526441,-0.1417443,0.4315155
1677921755,28.2922949,77.2947070,0.0074749,-0.0941979,0.1171334,28.2922081,77.2946182,0.0526441,-0.1417443,0.4315155
1677921755,28.2922949,77.2947070,0.0074420,-0.0073198,0.1275107,28.2922081,77.2946182,0.0526441,-0.1417443,0.4315155
1677921755,28.2922949,77.2947070,0.0074420,-0.0073198,0.1275107,28.2922081,77.2946182,0.0526441,-0.1417443,0.4315155
1677921755,28.2922949,77.2947070,-0.0056120,-0.0073198,0.1413334,28.2922081,77.2946182,0.0526441,-0.1417443,0.4315155
1677921755,28.2922949,77.2947070,-0.0056120,-0.0073198,0.1413334,28.2922081,77.2946182,0.0526441,-0.1417443,0.4315155
1677921755,28.2922949,77.2947070,-0.0056120,-0.0073198,0.1413334,28.2922081,77.2946182,0.0526441,-0.1417443,0.4315155
1677921755,28.2922949,77.2947070,-0.0056120,-0.0073198,0.1413334,28.2922081,77.2946182,0.0526441,-0.1417443,0.4315155
1677921755,28.2922949,77.2947070,-0.0056120,-0.0073198,0.1413334,28.2922081,77.2946182,0.0526441,-0.1417443,0.4315155
1677921755,28.2922949,77.2947070,-0.0056120,-0.0073198,0.1469131,28.2922081,77.2946182,0.0526441,-0.1417443,0.4315155
1677921756,28.2922998,77.2947119,-0.0056120,-0.0073198,0.1828244,28.2922108,77.2946209,0.0526441,-0.1417443,0.4315156
1677921756,28.2922998,77.2947119,-0.0056120,-0.0073198,0.1828244,28.2922108,77.2946209,0.0526441,-0.1417443,0.4315156
1677921756,28.2922998,77.2947119,-0.0056146,0.0314801,0.1909352,28.2922108,77.2946209,0.0526441,-0.1417443,0.4315156
1677921756,28.2922998,77.2947119,-0.0056146,0.0314801,0.1909352,28.2922108,77.2946209,0.0526441,-0.1417443,0.4315156
1677921756,28.2922998,77.2947119,0.0682824,0.0314801,0.1068755,28.2922108,77.2946209,0.0526441,-0.1417443,0.4315156
1677921756,28.2922998,77.2947119,0.0682824,0.0314801,0.1068755,28.2922108,77.2946209,0.0526441,-0.1417443,0.4315156
1677921756,28.2922998,77.2947119,0.0682824,0.0314801,0.1068755,28.2922108,77.2946209,0.0526441,-0.1417443,0.4315156
1677921756,28.2922998,77.2947119,0.0682824,0.0314801,0.1068755,28.2922108,77.2946209,0.0526441,-0.1417443,0.4315156
1677921756,28.2922998,77.2947119,0.0682824,0.0314801,0.1068755,28.2922108,77.2946209,0.0526441,-0.1417443,0.4315156
1677921756,28.2922998,77.2947119,0.0682824,0.0314801,0.1068755,28.2922108,77.2946209,0.0526441,-0.1417443,0.4315156
1677921757,28.2922998,77.2947119,0.0682824,0.0314801,0.1058607,28.2922133,77.2946235,0.0526436,-0.1417431,0.4315124
1677921757,28.2923022,77.2947168,0.0682824,0.0314801,0.1256263,28.2922133,77.2946235,0.0526440,-0.1417442,0.4315156
1677921757,28.2923022,77.2947168,0.0682824,0.0314801,0.1256263,28.2922133,77.2946235,0.0526436,-0.1417431,0.4315124
1677921757,28.2923022,77.2947168,0.0684398,0.0747309,0.1325281,28.2922133,77.2946235,0.0526440,-0.1417442,0.4315156
1677921757,28.2923022,77.2947168,0.0684398,0.0747309,0.1325281,28.2922133,77.2946235,0.0526436,-0.1417431,0.4315124
1677921757,28.2923022,77.2947168,0.0100318,0.0747309,0.2038949,28.2922133,77.2946235,0.0526440,-0.1417442,0.4315156
1677921757,28.2923022,77.2947168,0.0100318,0.0747309,0.2038949,28.2922133,77.2946235,0.0526436,-0.1417431,0.4315124
1677921757,28.2923022,77.2947168,0.0100318,0.0747309,0.2038949,28.2922133,77.2946235,0.0526440,-0.1417442,0.4315156
1677921757,28.2923022,77.2947168,0.0100318,0.0747309,0.2038949,28.2922133,77.2946235,0.0526436,-0.1417431,0.4315124
1677921757,28.2923022,77.2947168,0.0100318,0.0747309,0.2038949,28.2922133,77.2946235,0.0526440,-0.1417442,0.4315156
1677921758,28.2923022,77.2947168,0.0100318,0.0747309,0.2038949,28.2922158,77.2946261,0.0526440,-0.1417442,0.4315157
1677921758,28.2923022,77.2947168,0.0100318,0.0747309,0.1924570,28.2922158,77.2946261,0.0526436,-0.1417431,0.4315125
1677921758,28.2923071,77.2947217,0.0100318,0.0747309,0.1923867,28.2922158,77.2946261,0.0526440,-0.1417442,0.4315157
1677921758,28.2923071,77.2947217,0.0100318,0.0747309,0.1923867,28.2922158,77.2946261,0.0526436,-0.1417431,0.4315125
1677921758,28.2923071,77.2947217,0.0100047,-0.0134199,0.1741778,28.2922158,77.2946261,0.0526440,-0.1417442,0.4315157
1677921758,28.2923071,77.2947217,-0.0350231,-0.0134199,0.2203030,28.2922158,77.2946261,0.0526436,-0.1417431,0.4315125
1677921758,28.2923071,77.2947217,-0.0350231,-0.0134199,0.2203030,28.2922158,77.2946261,0.0526440,-0.1417442,0.4315157
1677921758,28.2923071,77.2947217,-0.0350231,-0.0134199,0.2203030,28.2922158,77.2946261,0.0526436,-0.1417431,0.4315125
1677921758,28.2923071,77.2947217,-0.0350231,-0.0134199,0.2203030,28.2922158,77.2946261,0.0526440,-0.1417442,0.4315157
1677921759,28.2923071,77.2947217,-0.0350231,-0.0134199,0.2203030,28.2922183,77.2946287,0.0526440,-0.1417441,0.4315158
1677921759,28.2923071,77.2947217,-0.0350231,-0.0134199,0.2203030,28.2922183,77.2946287,0.0526440,-0.1417441,0.4315158
1677921759,28.2923071,77.2947217,-0.0350231,-0.0134199,0.2247428,28.2922183,77.2946287,0.0526440,-0.1417441,0.4315158
1677921759,28.2923071,77.2947217,-0.0350231,-0.0134199,0.2303918,28.2922183,77.2946287,0.0526440,-0.1417441,0.4315158
1677921759,28.2923120,77.2947266,-0.0350231,-0.0134199,0.2296719,28.2922183,77.2946287,0.0526440,-0.1417441,0.4315158
1677921759,28.2923120,77.2947266,-0.0427797,-0.6116674,0.1694995,28.2922183,77.2946287,0.0526440,-0.1417441,0.4315158
1677921759,28.2923120,77.2947266,0.3472842,-0.6116674,-0.1246340,28.2922183,77.2946287,0.0526440,-0.1417441,0.4315158
1677921759,28.2923120,77.2947266,0.3472842,-0.6116674,-0.1246340,28.2922183,77.2946287,0.0526440,-0.1417441,0.4315158
1677921759,28.2923120,77.2947266,0.3472842,-0.6116674,-0.1246340,28.2922183,77.2946287,0.0526440,-0.1417441,0.4315158
1677921759,28.2923120,77.2947266,0.3472842,-0.6116674,-0.1246340,28.2922183,77.2946287,0.0526440,-0.1417441,0.4315158
1677921760,28.2923120,77.2947266,0.3472842,-0.6116674,-0.1246340,28.2922207,77.2946313,0.0526440,-0.1417441,0.4315159
1677921760,28.2923120,77.2947266,0.3472842,-0.6116674,-0.1246340,28.2922207,77.2946313,0.0526440,-0.1417441,0.4315159
1677921760,28.2923120,77.2947266,0.3472842,-0.6116674,-0.1246340,28.2922207,77.2946313,0.0526440,-0.1417441,0.4315159
1677921760,28.2923120,77.2947266,0.3472842,-0.6116674,-0.1244228,28.2922207,77.2946313,0.0526440,-0.1417441,0.4315159
1677921760,28.2923169,77.2947314,0.3472842,-0.6116674,-0.1272810,28.2922207,77.2946313,0.0526440,-0.1417441,0.4315159
1677921760,28.2923169,77.2947314,0.3472842,-0.6116674,-0.1272810,28.2922207,77.2946313,0.0526440,-0.1417441,0.4315159
1677921760,28.2923169,77.2947314,0.2825194,-0.0314801,-0.1096577,28.2922207,77.2946313,0.0526440,-0.1417441,0.4315159
1677921760,28.2923169,77.2947314,0.4684294,-0.0314801,-0.2935970,28.2922207,77.2946313,0.0526440,-0.1417441,0.4315159
1677921760,28.2923169,77.2947314,0.4684294,-0.0314801,-0.2935970,28.2922207,77.2946313,0.0526440,-0.1417441,0.4315159
1677921760,28.2923169,77.2947314,0.4684294,-0.0314801,-0.2935970,28.2922207,77.2946313,0.0526440,-0.1417441,0.4315159
1677921761,28.2923169,77.2947314,0.4684294,-0.0314801,-0.2935970,28.2922232,77.2946338,0.0526439,-0.1417440,0.4315159
1677921761,28.2923169,77.2947314,0.4684294,-0.0314801,-0.2864974,28.2922232,77.2946338,0.0526439,-0.1417440,0.4315159
1677921761,28.2923169,77.2947314,0.4684294,-0.0314801,-0.2628970,28.2922232,77.2946338,0.0526439,-0.1417440,0.4315159
1677921761,28.2923242,77.2947363,0.4684294,-0.0314801,-0.2534563,28.2922232,77.2946338,0.0526439,-0.1417440,0.4315159
1677921761,28.2923242,77.2947363,0.4685841,-0.0400252,-0.2516567,28.2922232,77.2946338,0.0526439,-0.1417440,0.4315159
1677921761,28.2923242,77.2947363,0.4685841,-0.0400252,-0.2516567,28.2922232,77.2946338,0.0526439,-0.1417440,0.4315159
1677921761,28.2923242,77.2947363,0.0752806,-0.0400252,0.1333991,28.2922232,77.2946338,0.0526439,-0.1417440,0.4315159
1677921761,28.2923242,77.2947363,0.0752806,-0.0400252,0.1333991,28.2922232,77.2946338,0.0526439,-0.1417440,0.4315159
1677921761,28.2923242,77.2947363,0.0752806,-0.0400252,0.1333991,28.2922232,77.2946338,0.0526439,-0.1417440,0.4315159
1677921761,28.2923242,77.2947363,0.0752806,-0.0400252,0.1333991,28.2922232,77.2946338,0.0526439,-0.1417440,0.4315159
1677921762,28.2923242,77.2947363,0.0752806,-0.0400252,0.1333991,28.2922257,77.2946364,0.0526435,-0.1417429,0.4315128
1677921762,28.2923242,77.2947363,0.0752806,-0.0400252,0.1333991,28.2922257,77.2946364,0.0526439,-0.1417440,0.4315160
1677921762,28.2923242,77.2947363,0.0752806,-0.0400252,0.1333991,28.2922257,77.2946364,0.0526435,-0.1417429,0.4315128
1677921762,28.2923242,77.2947363,0.0752806,-0.0400252,0.1258962,28.2922257,77.2946364,0.0526439,-0.1417440,0.4315160
1677921762,28.2923291,77.2947412,0.0752806,-0.0400252,0.1254272,28.2922257,77.2946364,0.0526435,-0.1417429,0.4315128
1677921762,28.2923291,77.2947412,0.0752806,-0.0400252,0.1254272,28.2922257,77.2946364,0.0526439,-0.1417440,0.4315160
1677921762,28.2923291,77.2947412,0.0752581,-0.0317242,0.1265065,28.2922257,77.2946364,0.0526435,-0.1417429,0.4315128
1677921762,28.2923291,77.2947412,0.1072495,-0.0317242,0.0929290,28.2922257,77.2946364,0.0526439,-0.1417440,0.4315160
1677921762,28.2923291,77.2947412,0.1072495,-0.0317242,0.0929290,28.2922257,77.2946364,0.0526435,-0.1417429,0.4315128
1677921762,28.2923291,77.2947412,0.1072495,-0.0317242,0.0929290,28.2922257,77.2946364,0.0526439,-0.1417440,0.4315160
1677921763,28.2923291,77.2947412,0.1072495,-0.0317242,0.0929290,28.2922282,77.2946389,0.0526439,-0.1417439,0.4315161
1677921763,28.2923291,77.2947412,0.1072495,-0.0317242,0.0929290,28.2922282,77.2946389,0.0526435,-0.1417428,0.4315129
1677921763,28.2923291,77.2947412,0.1072495,-0.0317242,0.0929290,28.2922282,77.2946389,0.0526439,-0.1417439,0.4315161
1677921763,28.2923291,77.2947412,0.1072495,-0.0317242,0.0929290,28.2922282,77.2946389,0.0526435,-0.1417428,0.4315129
1677921763,28.2923291,77.2947412,0.1072495,-0.0317242,0.0921071,28.2922282,77.2946389,0.0526439,-0.1417439,0.4315161
1677921763,28.2923364,77.2947461,0.1072495,-0.0317242,0.0735704,28.2922282,77.2946389,0.0526435,-0.1417428,0.4315129
1677921763,28.2923364,77.2947461,0.1072495,-0.0317242,0.0735704,28.2922282,77.2946389,0.0526439,-0.1417439,0.4315161
1677921763,28.2923364,77.2947461,0.1072258,-0.0237914,0.0742016,28.2922282,77.2946389,0.0526435,-0.1417428,0.4315129
1677921763,28.2923364,77.2947461,0.2885623,-0.0237914,-0.1192325,28.2922282,77.2946389,0.0526439,-0.1417439,0.4315161
1677921763,28.2923364,77.2947461,0.2885623,-0.0237914,-0.1192325,28.2922282,77.2946389,0.0526435,-0.1417428,0.4315129
1677921764,28.2923364,77.2947461,0.2885623,-0.0237914,-0.1192325,28.2922308,77.2946415,0.0526434,-0.1417428,0.4315130
1677921764,28.2923364,77.2947461,0.2885623,-0.0237914,-0.1192325,28.2922308,77.2946415,0.0526439,-0.1417439,0.4315162
1677921764,28.2923364,77.2947461,0.2885623,-0.0237914,-0.1192325,28.2922308,77.2946415,0.0526434,-0.1417428,0.4315130
1677921764,28.2923364,77.2947461,0.2885623,-0.0237914,-0.1192325,28.2922308,77.2946415,0.0526439,-0.1417439,0.4315162
1677921764,28.2923364,77.2947461,0.2885623,-0.0237914,-0.1192325,28.2922308,77.2946415,0.0526434,-0.1417428,0.4315130
1677921764,28.2923364,77.2947461,0.2885623,-0.0237914,-0.1178365,28.2922308,77.2946415,0.0526439,-0.1417439,0.4315162
1677921764,28.2923364,77.2947461,0.2885623,-0.0237914,-0.0841689,28.2922308,77.2946415,0.0526434,-0.1417428,0.4315130
1677921764,28.2923413,77.2947559,0.2885623,-0.0237914,-0.0866555,28.2922308,77.2946415,0.0526439,-0.1417439,0.4315162
1677921764,28.2923413,77.2947559,0.2978760,-0.2482409,-0.0800066,28.2922308,77.2946415,0.0526434,-0.1417428,0.4315130
1677921764,28.2923413,77.2947559,0.1660071,-0.2482409,0.0369862,28.2922308,77.2946415,0.0526439,-0.1417439,0.4315162
1677921765,28.2923413,77.2947559,0.1660071,-0.2482409,0.0369862,28.2922334,77.2946441,0.0526438,-0.1417438,0.4315164
1677921765,28.2923413,77.2947559,0.1660071,-0.2482409,0.0369862,28.2922334,77.2946441,0.0526434,-0.1417427,0.4315132
1677921765,28.2923413,77.2947559,0.1660071,-0.2482409,0.0369862,28.2922334,77.2946441,0.0526438,-0.1417438,0.4315164
1677921765,28.2923413,77.2947559,0.1660071,-0.2482409,0.0367254,28.2922334,77.2946441,0.0526434,-0.1417427,0.4315132
1677921765,28.2923462,77.2947607,0.1660071,-0.2482409,0.0163758,28.2922334,77.2946441,0.0526438,-0.1417438,0.4315164
1677921765,28.2923462,77.2947607,0.1608814,0.0100038,0.0261902,28.2922334,77.2946441,0.0526434,-0.1417427,0.4315132
1677921765,28.2923462,77.2947607,0.0753463,0.0100038,0.1202189,28.2922334,77.2946441,0.0526438,-0.1417438,0.4315164
1677921765,28.2923462,77.2947607,0.0753463,0.0100038,0.1202189,28.2922334,77.2946441,0.0526434,-0.1417427,0.4315132
1677921765,28.2923462,77.2947607,0.0753463,0.0100038,0.1202189,28.2922334,77.2946441,0.0526438,-0.1417438,0.4315164
1677921765,28.2923462,77.2947607,0.0753463,0.0100038,0.1202189,28.2922334,77.2946441,0.0526434,-0.1417427,0.4315132
1677921766,28.2923462,77.2947607,0.0753463,0.0100038,0.1202189,28.2922359,77.2946468,0.0526434,-0.1417426,0.4315133
1677921766,28.2923462,77.2947607,0.0753463,0.0100038,0.1216824,28.2922359,77.2946468,0.0526438,-0.1417437,0.4315165
1677921766,28.2923462,77.2947607,0.0753463,0.0100038,0.1307322,28.2922359,77.2946468,0.0526434,-0.1417426,0.4315133
1677921766,28.2923511,77.2947656,0.0753463,0.0100038,0.1329655,28.2922359,77.2946468,0.0526438,-0.1417437,0.4315165
1677921766,28.2923511,77.2947656,0.0753427,0.0018299,0.1318073,28.2922359,77.2946468,0.0526434,-0.1417426,0.4315133
1677921766,28.2923511,77.2947656,0.0753427,0.0018299,0.1318073,28.2922359,77.2946468,0.0526438,-0.1417437,0.4315165
1677921766,28.2923511,77.2947656,0.2786943,0.0018299,-0.0872184,28.2922359,77.2946468,0.0526434,-0.1417426,0.4315133
1677921766,28.2923511,77.2947656,0.2786943,0.0018299,-0.0872184,28.2922359,77.2946468,0.0526438,-0.1417437,0.4315165
1677921766,28.2923511,77.2947656,0.2786943,0.0018299,-0.0872184,28.2922359,77.2946468,0.0526434,-0.1417426,0.4315133
1677921767,28.2923511,77.2947656,0.2786943,0.0018299,-0.0872184,28.2922385,77.2946494,0.0526433,-0.1417426,0.4315135
1677921767,28.2923511,77.2947656,0.2786943,0.0018299,-0.0872184,28.2922385,77.2946494,0.0526437,-0.1417437,0.4315167
1677921767,28.2923511,77.2947656,0.2786943,0.0018299,-0.0872184,28.2922385,77.2946494,0.0526433,-0.1417426,0.4315135
1677921767,28.2923511,77.2947656,0.2786943,0.0018299,-0.0872184,28.2922385,77.2946494,0.0526437,-0.1417437,0.4315167
1677921767,28.2923511,77.2947656,0.2786943,0.0018299,-0.0695081,28.2922385,77.2946494,0.0526433,-0.1417426,0.4315135
1677921767,28.2923560,77.2947705,0.2786943,0.0018299,-0.0671145,28.2922385,77.2946494,0.0526437,-0.1417437,0.4315167
1677921767,28.2923560,77.2947705,0.2802673,-0.1046190,-0.0622777,28.2922385,77.2946494,0.0526433,-0.1417426,0.4315135
1677921767,28.2923560,77.2947705,0.0703458,-0.1046190,0.1325514,28.2922385,77.2946494,0.0526437,-0.1417437,0.4315167
1677921767,28.2923560,77.2947705,0.0703458,-0.1046190,0.1325514,28.2922385,77.2946494,0.0526433,-0.1417426,0.4315135
1677921767,28.2923560,77.2947705,0.0703458,-0.1046190,0.1325514,28.2922385,77.2946494,0.0526437,-0.1417437,0.4315167
1677921768,28.2923560,77.2947705,0.0703458,-0.1046190,0.1325514,28.2922410,77.2946520,0.0526437,-0.1417436,0.4315169
1677921768,28.2923560,77.2947705,0.0703458,-0.1046190,0.1325514,28.2922410,77.2946520,0.0526433,-0.1417425,0.4315136
1677921768,28.2923560,77.2947705,0.0703458,-0.1046190,0.1325514,28.2922410,77.2946520,0.0526437,-0.1417436,0.4315169
1677921768,28.2923560,77.2947705,0.0703458,-0.1046190,0.1399767,28.2922410,77.2946520,0.0526433,-0.1417425,0.4315136
1677921768,28.2923633,77.2947754,0.0703458,-0.1046190,0.1395460,28.2922410,77.2946520,0.0526437,-0.1417436,0.4315169
1677921768,28.2923633,77.2947754,0.0703458,-0.1046190,0.1395460,28.2922410,77.2946520,0.0526433,-0.1417425,0.4315136
1677921768,28.2923633,77.2947754,0.0706288,-0.1375564,0.1357822,28.2922410,77.2946520,0.0526437,-0.1417436,0.4315169
1677921768,28.2923633,77.2947754,-0.0385583,-0.1375564,0.2291602,28.2922410,77.2946520,0.0526433,-0.1417425,0.4315136
1677921768,28.2923633,77.2947754,-0.0385583,-0.1375564,0.2291602,28.2922410,77.2946520,0.0526437,-0.1417436,0.4315169
1677921768,28.2923633,77.2947754,-0.0385583,-0.1375564,0.2291602,28.2922410,77.2946520,0.0526433,-0.1417425,0.4315136
1677921769,28.2923633,77.2947754,-0.0385583,-0.1375564,0.2291602,28.2922436,77.2946547,0.0526432,-0.1417424,0.4315138
1677921769,28.2923633,77.2947754,-0.0385583,-0.1375564,0.2291602,28.2922436,77.2946547,0.0526436,-0.1417435,0.4315169
1677921769,28.2923633,77.2947754,-0.0385583,-0.1375564,0.2291602,28.2922436,77.2946547,0.0526436,-0.1417435,0.4315169
1677921769,28.2923633,77.2947754,-0.0385583,-0.1375564,0.2291602,28.2922436,77.2946547,0.0526436,-0.1417435,0.4315169
1677921769,28.2923633,77.2947754,-0.0385583,-0.1375564,0.2247682,28.2922436,77.2946547,0.0526436,-0.1417435,0.4315169
1677921769,28.2923682,77.2947803,-0.0385583,-0.1375564,0.2248220,28.2922436,77.2946547,0.0526436,-0.1417435,0.4315169
1677921769,28.2923682,77.2947803,-0.0385583,-0.1375564,0.2248220,28.2922436,77.2946547,0.0526436,-0.1417435,0.4315169
1677921769,28.2923682,77.2947803,-0.0384237,-0.1094042,0.2296638,28.2922436,77.2946547,0.0526436,-0.1417435,0.4315169
1677921769,28.2923682,77.2947803,0.2564845,-0.1094042,-0.0465219,28.2922436,77.2946547,0.0526436,-0.1417435,0.4315169
1677921769,28.2923682,77.2947803,0.2564845,-0.1094042,-0.0465219,28.2922436,77.2946547,0.0526436,-0.1417435,0.4315169
1677921770,28.2923682,77.2947803,0.2564845,-0.1094042,-0.0465219,28.2922462,77.2946573,0.0526436,-0.1417435,0.4315170
1677921770,28.2923682,77.2947803,0.2564845,-0.1094042,-0.0465219,28.2922462,77.2946573,0.0526436,-0.1417435,0.4315170
1677921770,28.2923682,77.2947803,0.2564845,-0.1094042,-0.0465219,28.2922462,77.2946573,0.0526436,-0.1417435,0.4315170
1677921770,28.2923682,77.2947803,0.2564845,-0.1094042,-0.0465219,28.2922462,77.2946573,0.0526436,-0.1417435,0.4315170
1677921770,28.2923682,77.2947803,0.2564845,-0.1094042,-0.0459144,28.2922462,77.2946573,0.0526436,-0.1417435,0.4315170
1677921770,28.2923682,77.2947803,0.2564845,-0.1094042,-0.0306535,28.2922462,77.2946573,0.0526436,-0.1417435,0.4315170
1677921770,28.2923804,77.2947900,0.2564845,-0.1094042,-0.0247154,28.2922462,77.2946573,0.0526436,-0.1417435,0.4315170
1677921770,28.2923804,77.2947900,0.2549543,-0.0169582,-0.0253276,28.2922462,77.2946573,0.0526436,-0.1417435,0.4315170
1677921770,28.2923804,77.2947900,0.2549543,-0.0169582,-0.0253276,28.2922462,77.2946573,0.0526436,-0.1417435,0.4315170
1677921770,28.2923804,77.2947900,0.0220862,-0.0169582,0.2047507,28.2922462,77.2946573,0.0526436,-0.1417435,0.4315170
1677921771,28.2923804,77.2947900,0.0220862,-0.0169582,0.2047507,28.2922489,77.2946600,0.0526431,-0.1417423,0.4315140
1677921771,28.2923804,77.2947900,0.0220862,-0.0169582,0.2047507,28.2922489,77.2946600,0.0526435,-0.1417434,0.4315172
1677921771,28.2923804,77.2947900,0.0220862,-0.0169582,0.2047507,28.2922489,77.2946600,0.0526431,-0.1417423,0.4315140
1677921771,28.2923804,77.2947900,0.0220862,-0.0169582,0.2047507,28.2922489,77.2946600,0.0526435,-0.1417434,0.4315172
1677921771,28.2923804,77.2947900,0.0220862,-0.0169582,0.2047507,28.2922489,77.2946600,0.0526431,-0.1417423,0.4315140
1677921771,28.2923804,77.2947900,0.0220862,-0.0169582,0.2106189,28.2922489,77.2946600,0.0526435,-0.1417434,0.4315172
1677921771,28.2923804,77.2947900,0.0220862,-0.0169582,0.2049684,28.2922489,77.2946600,0.0526431,-0.1417423,0.4315140
1677921771,28.2923804,77.2947900,0.0220862,-0.0169582,0.2048960,28.2922489,77.2946600,0.0526435,-0.1417434,0.4315172
1677921771,28.2923804,77.2947900,0.0222079,-0.1060911,0.1891154,28.2922489,77.2946600,0.0526431,-0.1417423,0.4315140
1677921771,28.2923804,77.2947900,0.0222079,-0.1060911,0.1891154,28.2922489,77.2946600,0.0526435,-0.1417434,0.4315172
1677921772,28.2923804,77.2947900,0.0226987,-0.1060911,0.1886697,28.2922516,77.2946626,0.0526435,-0.1417433,0.4315174
1677921772,28.2923804,77.2947900,0.0226987,-0.1060911,0.1886697,28.2922516,77.2946626,0.0526431,-0.1417422,0.4315142
1677921772,28.2923804,77.2947900,0.0226987,-0.1060911,0.1886697,28.2922516,77.2946626,0.0526435,-0.1417433,0.4315174
1677921772,28.2923804,77.2947900,0.0226987,-0.1060911,0.1886697,28.2922516,77.2946626,0.0526431,-0.1417422,0.4315142
1677921772,28.2923804,77.2947900,0.0226987,-0.1060911,0.1886697,28.2922516,77.2946626,0.0526435,-0.1417433,0.4315174
1677921772,28.2923804,77.2947900,0.0226987,-0.1060911,0.1886697,28.2922516,77.2946626,0.0526431,-0.1417422,0.4315142
1677921772,28.2923804,77.2947900,0.0226987,-0.1060911,0.1639957,28.2922516,77.2946626,0.0526435,-0.1417433,0.4315174
1677921773,28.2923901,77.2947998,0.2107825,-0.0050018,-0.0636287,28.2922543,77.2946653,0.0526434,-0.1417433,0.4315175
1677921775,28.2924048,77.2948193,0.0600579,0.0001220,0.1407993,28.2922572,77.2946682,0.0526434,-0.1417432,0.4315178
1677921775,28.2924048,77.2948193,0.0600579,0.0001220,0.1407993,28.2922572,77.2946682,0.0526430,-0.1417421,0.4315146
1677921776,28.2924048,77.2948193,0.0603370,0.0961587,0.1560614,28.2922599,77.2946711,0.0526429,-0.1417421,0.4315148
1677921776,28.2924048,77.2948193,0.0593548,0.0961587,0.1571299,28.2922599,77.2946711,0.0526433,-0.1417432,0.4315180
1677921776,28.2924048,77.2948193,0.0593548,0.0961587,0.1571299,28.2922599,77.2946711,0.0526429,-0.1417421,0.4315148
1677921776,28.2924048,77.2948193,0.0593548,0.0961587,0.1571299,28.2922599,77.2946711,0.0526433,-0.1417432,0.4315180
1677921776,28.2924048,77.2948193,0.0593548,0.0961587,0.1571299,28.2922599,77.2946711,0.0526429,-0.1417421,0.4315148
1677921776,28.2924048,77.2948193,0.0593548,0.0961587,0.1571299,28.2922599,77.2946711,0.0526433,-0.1417432,0.4315180
1677921776,28.2924048,77.2948193,0.0593548,0.0961587,0.1571299,28.2922599,77.2946711,0.0526429,-0.1417421,0.4315148
1677921776,28.2924048,77.2948193,0.0593548,0.0961587,0.1571299,28.2922599,77.2946711,0.0526433,-0.1417432,0.4315180
1677921776,28.2924048,77.2948193,0.0593548,0.0961587,0.1105971,28.2922599,77.2946711,0.0526429,-0.1417421,0.4315148
1677921777,28.2924048,77.2948193,0.0593548,0.0961587,0.1105971,28.2922626,77.2946738,0.0526428,-0.1417420,0.4315151
1677921777,28.2924048,77.2948193,0.0595436,0.1247589,0.1145182,28.2922626,77.2946738,0.0526432,-0.1417431,0.4315182
1677921777,28.2924048,77.2948193,0.0839513,0.1247589,0.0854853,28.2922626,77.2946738,0.0526432,-0.1417431,0.4315182
1677921777,28.2924048,77.2948193,0.0839513,0.1247589,0.0854853,28.2922626,77.2946738,0.0526432,-0.1417431,0.4315182
1677921777,28.2924048,77.2948193,0.0839513,0.1247589,0.0854853,28.2922626,77.2946738,0.0526432,-0.1417431,0.4315182
1677921777,28.2924048,77.2948193,0.0839513,0.1247589,0.0854853,28.2922626,77.2946738,0.0526432,-0.1417431,0.4315182
1677921777,28.2924048,77.2948193,0.0839513,0.1247589,0.0854853,28.2922626,77.2946738,0.0526432,-0.1417431,0.4315182
1677921777,28.2924048,77.2948193,0.0839513,0.1247589,0.0854853,28.2922626,77.2946738,0.0526432,-0.1417431,0.4315182
1677921777,28.2924048,77.2948193,0.0839513,0.1247589,0.0881391,28.2922626,77.2946738,0.0526432,-0.1417431,0.4315182
1677921778,28.2924194,77.2948340,0.0616045,0.0508941,0.1607909,28.2922655,77.2946767,0.0526431,-0.1417430,0.4315184
1677921779,28.2924194,77.2948340,0.0616045,0.0508941,0.1607909,28.2922682,77.2946795,0.0526430,-0.1417429,0.4315187
1677921779,28.2924194,77.2948340,0.0685432,-0.4561847,0.1047986,28.2922682,77.2946795,0.0526430,-0.1417429,0.4315187
1677921779,28.2924194,77.2948340,0.1146722,-0.4561847,0.0681908,28.2922682,77.2946795,0.0526430,-0.1417429,0.4315187
1677921779,28.2924194,77.2948340,0.1146722,-0.4561847,0.0681908,28.2922682,77.2946795,0.0526430,-0.1417429,0.4315187
1677921779,28.2924194,77.2948340,0.1146722,-0.4561847,0.0681908,28.2922682,77.2946795,0.0526430,-0.1417429,0.4315187
1677921779,28.2924194,77.2948340,0.1146722,-0.4561847,0.0681908,28.2922682,77.2946795,0.0526430,-0.1417429,0.4315187
1677921779,28.2924194,77.2948340,0.1146722,-0.4561847,0.0681908,28.2922682,77.2946795,0.0526430,-0.1417429,0.4315187
1677921779,28.2924194,77.2948340,0.1146722,-0.4561847,0.0681908,28.2922682,77.2946795,0.0526430,-0.1417429,0.4315187
1677921779,28.2924194,77.2948340,0.1146722,-0.4561847,0.0681908,28.2922682,77.2946795,0.0526430,-0.1417429,0.4315187
1677921779,28.2924194,77.2948340,0.1146722,-0.4561847,0.0546550,28.2922682,77.2946795,0.0526430,-0.1417429,0.4315187
1677921780,28.2924243,77.2948437,0.1146722,-0.4561847,0.0543403,28.2922709,77.2946824,0.0526425,-0.1417418,0.4315158
1677921780,28.2924243,77.2948437,0.1066565,-0.2656480,0.0676026,28.2922709,77.2946824,0.0526429,-0.1417429,0.4315189
1677921780,28.2924243,77.2948437,0.1066565,-0.2656480,0.0676026,28.2922709,77.2946824,0.0526425,-0.1417418,0.4315158
1677921780,28.2924243,77.2948437,0.1197629,-0.2656480,0.0556513,28.2922709,77.2946824,0.0526429,-0.1417429,0.4315189
1677921780,28.2924243,77.2948437,0.1197629,-0.2656480,0.0556513,28.2922709,77.2946824,0.0526425,-0.1417418,0.4315158
1677921780,28.2924243,77.2948437,0.1197629,-0.2656480,0.0556513,28.2922709,77.2946824,0.0526429,-0.1417429,0.4315189
1677921780,28.2924243,77.2948437,0.1197629,-0.2656480,0.0556513,28.2922709,77.2946824,0.0526425,-0.1417418,0.4315158
